station_id,station_name,city,latitude,longitude,avg_CO2,avg_PM2_5,avg_O3,processing_time
S005,Botafogo,Rio de Janeiro,-22.9509,-43.1815,528.1,83.46,75.1,2025-10-01T23:05:11.631-03:00
S015,Itaim Bibi,São Paulo,-23.5845,-46.6812,477.71,70.52,70.48,2025-10-01T23:05:11.631-03:00
S024,Lago Norte,Brasília,-15.763,-47.807,550.6,68.77,83.21,2025-10-01T23:05:11.631-03:00
S027,Espinheiro,Recife,-8.049,-34.906,503.04,52.18,56.86,2025-10-01T23:05:11.631-03:00
S019,Funcionários,Belo Horizonte,-19.9305,-43.9381,529.29,51.19,61.39,2025-10-01T23:05:11.631-03:00
S020,Belvedere,Belo Horizonte,-19.932,-43.957,517.67,70.09,61.04,2025-10-01T23:05:11.631-03:00
S025,Boa Viagem,Recife,-8.1125,-34.9036,447.35,48.72,82.3,2025-10-01T23:05:11.631-03:00
