station_id,station_name,city,latitude,longitude,avg_CO2,avg_PM2_5,avg_O3,processing_time
S005,Botafogo,Rio de Janeiro,-22.9509,-43.1815,401.93,23.79,41.84,2025-10-01T22:09:32.506-03:00
S008,Barra da Tijuca,Rio de Janeiro,-23.0007,-43.3653,418.52,32.09,43.93,2025-10-01T22:09:32.506-03:00
S009,Lagoa,Rio de Janeiro,-22.9745,-43.2041,460.28,43.12,64.17,2025-10-01T22:09:32.506-03:00
S010,Jardim Paulista,São Paulo,-23.5711,-46.652,393.15,29.95,44.78,2025-10-01T22:09:32.506-03:00
S012,Pinheiros,São Paulo,-23.5675,-46.7016,509.06,86.91,56.19,2025-10-01T22:09:32.506-03:00
S013,Moema,São Paulo,-23.6008,-46.6739,417.59,33.23,56.84,2025-10-01T22:09:32.506-03:00
S014,Bela Vista,São Paulo,-23.5644,-46.6472,399.63,31.7,38.84,2025-10-01T22:09:32.506-03:00
S015,Itaim Bibi,São Paulo,-23.5845,-46.6812,407.5,28.74,59.92,2025-10-01T22:09:32.506-03:00
S017,Savassi,Belo Horizonte,-19.9311,-43.9378,405.35,24.23,43.84,2025-10-01T22:09:32.506-03:00
S018,Pampulha,Belo Horizonte,-19.8513,-43.9586,409.33,20.83,59.13,2025-10-01T22:09:32.506-03:00
S022,Asa Norte,Brasília,-15.7747,-47.885,399.03,20.54,58.73,2025-10-01T22:09:32.506-03:00
S023,Lago Sul,Brasília,-15.825,-47.853,383.1,33.93,44.88,2025-10-01T22:09:32.506-03:00
S024,Lago Norte,Brasília,-15.763,-47.807,398.87,21.32,32.71,2025-10-01T22:09:32.506-03:00
S027,Espinheiro,Recife,-8.049,-34.906,546.95,69.62,51.75,2025-10-01T22:09:32.506-03:00
S028,Meireles,Fortaleza,-3.7295,-38.5216,389.44,23.37,57.23,2025-10-01T22:09:32.506-03:00
S030,Praia de Iracema,Fortaleza,-3.717,-38.536,397.08,27.53,45.79,2025-10-01T22:09:32.506-03:00
S031,Centro Histórico,Salvador,-12.9711,-38.51,398.17,20.8,54.19,2025-10-01T22:09:32.506-03:00
S032,Barra,Salvador,-12.981,-38.51,389.91,22.2,36.83,2025-10-01T22:09:32.506-03:00
S033,Ondina,Salvador,-12.9782,-38.503,400.37,19.37,36.26,2025-10-01T22:09:32.506-03:00
S035,Centro,Curitiba,-25.4287,-49.2731,411.02,17.33,36.64,2025-10-01T22:09:32.506-03:00
S036,Água Verde,Curitiba,-25.448,-49.282,405.98,33.78,56.89,2025-10-01T22:09:32.506-03:00
S039,Centro Histórico,Porto Alegre,-30.0277,-51.2287,402.41,18.87,43.43,2025-10-01T22:09:32.506-03:00
S041,Cidade Baixa,Porto Alegre,-30.033,-51.224,531.33,44.73,62.6,2025-10-01T22:09:32.506-03:00
S042,Praia de Belas,Porto Alegre,-30.053,-51.212,392.83,25.47,57.11,2025-10-01T22:09:32.506-03:00
S043,Boa Vista,Manaus,-3.0653,-60.025,393.98,29.13,39.54,2025-10-01T22:09:32.506-03:00
S044,Centro,Manaus,-3.119,-60.0217,401.37,16.39,44.76,2025-10-01T22:09:32.506-03:00
S045,Aleixo,Manaus,-3.1272,-60.005,395.2,22.95,47.3,2025-10-01T22:09:32.506-03:00
S047,Reduto,Belém,-1.44,-48.502,410.82,34.64,50.74,2025-10-01T22:09:32.506-03:00
S049,Setor Oeste,Goiânia,-16.686,-49.262,392.14,17.92,31.7,2025-10-01T22:09:32.506-03:00
S050,Setor Bueno,Goiânia,-16.678,-49.255,414.8,24.6,46.37,2025-10-01T22:09:32.506-03:00
S051,Savassi,Belo Horizonte,-19.935,-43.935,387.92,29.03,48.33,2025-10-01T22:09:32.506-03:00
S001,Centro,Rio de Janeiro,-22.9068,-43.1729,388.03,18.28,52.34,2025-10-01T22:09:32.506-03:00
S002,Copacabana,Rio de Janeiro,-22.9687,-43.1869,383.49,16.72,40.19,2025-10-01T22:09:32.506-03:00
S003,Tijuca,Rio de Janeiro,-22.9309,-43.2376,385.7,25.82,37.61,2025-10-01T22:09:32.506-03:00
S004,Nova Iguaçu,Rio de Janeiro,-22.7598,-43.4516,404.71,22.39,31.24,2025-10-01T22:09:32.506-03:00
S006,Leblon,Rio de Janeiro,-22.9831,-43.2227,402.44,27.52,58.75,2025-10-01T22:09:32.506-03:00
S007,Ipanema,Rio de Janeiro,-22.9839,-43.206,384.46,16.7,30.55,2025-10-01T22:09:32.506-03:00
S011,Vila Madalena,São Paulo,-23.5567,-46.6892,395.77,20.83,58.21,2025-10-01T22:09:32.506-03:00
S016,Liberdade,São Paulo,-23.57,-46.632,410.99,16.48,32.69,2025-10-01T22:09:32.506-03:00
S019,Funcionários,Belo Horizonte,-19.9305,-43.9381,437.85,45.71,81.99,2025-10-01T22:09:32.506-03:00
S020,Belvedere,Belo Horizonte,-19.932,-43.957,383.16,23.54,52.18,2025-10-01T22:09:32.506-03:00
S021,Asa Sul,Brasília,-15.7974,-47.8825,393.1,27.97,57.71,2025-10-01T22:09:32.506-03:00
S025,Boa Viagem,Recife,-8.1125,-34.9036,389.97,26.25,39.55,2025-10-01T22:09:32.506-03:00
S026,Graças,Recife,-8.0526,-34.8944,418.91,28.3,30.34,2025-10-01T22:09:32.506-03:00
S029,Aldeota,Fortaleza,-3.7273,-38.519,398.75,27.55,51.22,2025-10-01T22:09:32.506-03:00
S034,Batel,Curitiba,-25.4284,-49.2733,387.11,33.2,51.3,2025-10-01T22:09:32.506-03:00
S037,Cabral,Curitiba,-25.419,-49.269,553.39,60.41,63.76,2025-10-01T22:09:32.506-03:00
S038,Moinhos de Vento,Porto Alegre,-30.0346,-51.216,388.38,29.74,44.11,2025-10-01T22:09:32.506-03:00
S040,Petrópolis,Porto Alegre,-30.0215,-51.2005,477.45,45.81,57.36,2025-10-01T22:09:32.506-03:00
S046,Centro,Belém,-1.455,-48.503,410.83,31.92,35.6,2025-10-01T22:09:32.506-03:00
S048,Cidade Velha,Belém,-1.465,-48.492,409.06,17.65,30.97,2025-10-01T22:09:32.506-03:00
