station_id,station_name,city,latitude,longitude,avg_CO2,avg_PM2_5,avg_O3,processing_time
S023,Lago Sul,Brasília,-15.825,-47.853,494.33,72.27,64.76,2025-10-01T23:08:50.500-03:00
S028,Meireles,Fortaleza,-3.7295,-38.5216,485.14,68.46,48.59,2025-10-01T23:08:50.500-03:00
S032,Barra,Salvador,-12.981,-38.51,541.13,62.69,78.73,2025-10-01T23:08:50.500-03:00
S036,Água Verde,Curitiba,-25.448,-49.282,480.76,59.51,72.95,2025-10-01T23:08:50.500-03:00
S043,Boa Vista,Manaus,-3.0653,-60.025,518.5,83.8,71.73,2025-10-01T23:08:50.500-03:00
