station_id,station_name,city,latitude,longitude,avg_CO2,avg_PM2_5,avg_O3,processing_time
S030,Praia de Iracema,Fortaleza,-3.717,-38.536,530.14,60.83,78.11,2025-10-01T22:11:23.861-03:00
S043,Boa Vista,Manaus,-3.0653,-60.025,494.19,69.13,66.88,2025-10-01T22:11:23.861-03:00
S006,Leblon,Rio de Janeiro,-22.9831,-43.2227,448.12,73.02,62.97,2025-10-01T22:11:23.861-03:00
S011,Vila Madalena,São Paulo,-23.5567,-46.6892,450.71,64.83,71.44,2025-10-01T22:11:23.861-03:00
S029,Aldeota,Fortaleza,-3.7273,-38.519,490.47,58.33,67.79,2025-10-01T22:11:23.861-03:00
S046,Centro,Belém,-1.455,-48.503,477.1,65.08,47.19,2025-10-01T22:11:23.861-03:00
