station_id,station_name,city,latitude,longitude,avg_CO2,avg_PM2_5,avg_O3,processing_time
S005,Botafogo,Rio de Janeiro,-22.9509,-43.1815,507.6,56.0,71.99,2025-10-01T22:13:43.913-03:00
S035,Centro,Curitiba,-25.4287,-49.2731,471.54,80.13,69.49,2025-10-01T22:13:43.913-03:00
S049,Setor Oeste,Goiânia,-16.686,-49.262,491.95,73.7,47.48,2025-10-01T22:13:43.913-03:00
S020,Belvedere,Belo Horizonte,-19.932,-43.957,464.84,62.39,62.53,2025-10-01T22:13:43.913-03:00
S021,Asa Sul,Brasília,-15.7974,-47.8825,541.66,55.73,76.38,2025-10-01T22:13:43.913-03:00
