station_id,station_name,city,latitude,longitude,avg_CO2,avg_PM2_5,avg_O3,processing_time
S010,Jardim Paulista,São Paulo,-23.5711,-46.652,500.2,61.68,58.16,2025-10-01T22:06:49.092-03:00
S027,Espinheiro,Recife,-8.049,-34.906,509.4,68.64,65.71,2025-10-01T22:06:49.092-03:00
S028,Meireles,Fortaleza,-3.7295,-38.5216,494.81,80.4,58.49,2025-10-01T22:06:49.092-03:00
S002,Copacabana,Rio de Janeiro,-22.9687,-43.1869,541.9,62.13,62.61,2025-10-01T22:06:49.092-03:00
S020,Belvedere,Belo Horizonte,-19.932,-43.957,516.12,55.37,66.51,2025-10-01T22:06:49.092-03:00
S046,Centro,Belém,-1.455,-48.503,532.36,71.68,58.86,2025-10-01T22:06:49.092-03:00
