station_id,station_name,city,latitude,longitude,avg_CO2,avg_PM2_5,avg_O3,processing_time
S005,Botafogo,Rio de Janeiro,-22.9509,-43.1815,396.24,17.82,35.6,2025-10-01T23:05:42.716-03:00
S008,Barra da Tijuca,Rio de Janeiro,-23.0007,-43.3653,380.15,18.84,40.45,2025-10-01T23:05:42.716-03:00
S009,Lagoa,Rio de Janeiro,-22.9745,-43.2041,418.69,17.65,45.45,2025-10-01T23:05:42.716-03:00
S010,Jardim Paulista,São Paulo,-23.5711,-46.652,386.38,31.02,40.94,2025-10-01T23:05:42.716-03:00
S012,Pinheiros,São Paulo,-23.5675,-46.7016,385.26,29.74,42.65,2025-10-01T23:05:42.716-03:00
S013,Moema,São Paulo,-23.6008,-46.6739,532.63,76.39,58.49,2025-10-01T23:05:42.716-03:00
S014,Bela Vista,São Paulo,-23.5644,-46.6472,417.29,20.71,30.09,2025-10-01T23:05:42.716-03:00
S015,Itaim Bibi,São Paulo,-23.5845,-46.6812,411.33,30.92,59.3,2025-10-01T23:05:42.716-03:00
S017,Savassi,Belo Horizonte,-19.9311,-43.9378,406.25,17.34,42.88,2025-10-01T23:05:42.716-03:00
S018,Pampulha,Belo Horizonte,-19.8513,-43.9586,391.33,33.94,38.47,2025-10-01T23:05:42.716-03:00
S022,Asa Norte,Brasília,-15.7747,-47.885,405.17,26.58,47.22,2025-10-01T23:05:42.716-03:00
S023,Lago Sul,Brasília,-15.825,-47.853,417.58,18.08,49.09,2025-10-01T23:05:42.716-03:00
S024,Lago Norte,Brasília,-15.763,-47.807,387.5,34.34,59.96,2025-10-01T23:05:42.716-03:00
S027,Espinheiro,Recife,-8.049,-34.906,392.63,21.55,42.72,2025-10-01T23:05:42.716-03:00
S028,Meireles,Fortaleza,-3.7295,-38.5216,406.47,29.55,56.95,2025-10-01T23:05:42.716-03:00
S030,Praia de Iracema,Fortaleza,-3.717,-38.536,415.23,30.31,58.56,2025-10-01T23:05:42.716-03:00
S031,Centro Histórico,Salvador,-12.9711,-38.51,418.94,15.71,40.4,2025-10-01T23:05:42.716-03:00
S032,Barra,Salvador,-12.981,-38.51,392.93,15.75,45.25,2025-10-01T23:05:42.716-03:00
S033,Ondina,Salvador,-12.9782,-38.503,505.64,63.18,69.2,2025-10-01T23:05:42.716-03:00
S035,Centro,Curitiba,-25.4287,-49.2731,392.53,22.15,46.65,2025-10-01T23:05:42.716-03:00
S036,Água Verde,Curitiba,-25.448,-49.282,384.86,28.04,41.36,2025-10-01T23:05:42.716-03:00
S039,Centro Histórico,Porto Alegre,-30.0277,-51.2287,406.23,29.41,58.37,2025-10-01T23:05:42.716-03:00
S041,Cidade Baixa,Porto Alegre,-30.033,-51.224,398.15,33.4,30.06,2025-10-01T23:05:42.716-03:00
S042,Praia de Belas,Porto Alegre,-30.053,-51.212,411.06,15.52,33.82,2025-10-01T23:05:42.716-03:00
S043,Boa Vista,Manaus,-3.0653,-60.025,399.19,28.97,41.66,2025-10-01T23:05:42.716-03:00
S044,Centro,Manaus,-3.119,-60.0217,408.67,22.33,56.99,2025-10-01T23:05:42.716-03:00
S045,Aleixo,Manaus,-3.1272,-60.005,403.02,26.19,38.87,2025-10-01T23:05:42.716-03:00
S047,Reduto,Belém,-1.44,-48.502,474.77,53.49,64.8,2025-10-01T23:05:42.716-03:00
S049,Setor Oeste,Goiânia,-16.686,-49.262,382.5,25.4,53.69,2025-10-01T23:05:42.716-03:00
S050,Setor Bueno,Goiânia,-16.678,-49.255,521.04,77.99,66.14,2025-10-01T23:05:42.716-03:00
S051,Savassi,Belo Horizonte,-19.935,-43.935,388.46,27.07,47.13,2025-10-01T23:05:42.716-03:00
S001,Centro,Rio de Janeiro,-22.9068,-43.1729,410.47,27.31,40.64,2025-10-01T23:05:42.716-03:00
S002,Copacabana,Rio de Janeiro,-22.9687,-43.1869,394.81,18.96,59.74,2025-10-01T23:05:42.716-03:00
S003,Tijuca,Rio de Janeiro,-22.9309,-43.2376,513.59,69.87,75.11,2025-10-01T23:05:42.716-03:00
S004,Nova Iguaçu,Rio de Janeiro,-22.7598,-43.4516,404.69,29.17,33.23,2025-10-01T23:05:42.716-03:00
S006,Leblon,Rio de Janeiro,-22.9831,-43.2227,419.56,17.39,53.56,2025-10-01T23:05:42.716-03:00
S007,Ipanema,Rio de Janeiro,-22.9839,-43.206,387.13,22.12,40.22,2025-10-01T23:05:42.716-03:00
S011,Vila Madalena,São Paulo,-23.5567,-46.6892,419.2,23.85,34.22,2025-10-01T23:05:42.716-03:00
S016,Liberdade,São Paulo,-23.57,-46.632,391.2,15.64,56.9,2025-10-01T23:05:42.716-03:00
S019,Funcionários,Belo Horizonte,-19.9305,-43.9381,395.96,19.01,31.25,2025-10-01T23:05:42.716-03:00
S020,Belvedere,Belo Horizonte,-19.932,-43.957,463.39,54.42,65.3,2025-10-01T23:05:42.716-03:00
S021,Asa Sul,Brasília,-15.7974,-47.8825,398.39,25.07,42.66,2025-10-01T23:05:42.716-03:00
S025,Boa Viagem,Recife,-8.1125,-34.9036,415.11,21.33,44.09,2025-10-01T23:05:42.716-03:00
S026,Graças,Recife,-8.0526,-34.8944,453.0,75.19,45.42,2025-10-01T23:05:42.716-03:00
S029,Aldeota,Fortaleza,-3.7273,-38.519,386.2,25.8,57.3,2025-10-01T23:05:42.716-03:00
S034,Batel,Curitiba,-25.4284,-49.2733,448.98,90.21,75.47,2025-10-01T23:05:42.716-03:00
S037,Cabral,Curitiba,-25.419,-49.269,390.31,20.38,33.19,2025-10-01T23:05:42.716-03:00
S038,Moinhos de Vento,Porto Alegre,-30.0346,-51.216,504.76,68.45,58.3,2025-10-01T23:05:42.716-03:00
S040,Petrópolis,Porto Alegre,-30.0215,-51.2005,400.95,33.83,49.78,2025-10-01T23:05:42.716-03:00
S046,Centro,Belém,-1.455,-48.503,399.16,31.95,39.46,2025-10-01T23:05:42.716-03:00
S048,Cidade Velha,Belém,-1.465,-48.492,405.53,16.89,55.24,2025-10-01T23:05:42.716-03:00
