station_id,station_name,city,latitude,longitude,avg_CO2,avg_PM2_5,avg_O3,processing_time
S009,Lagoa,Rio de Janeiro,-22.9745,-43.2041,509.92,78.2,49.06,2025-10-01T22:57:42.384-03:00
S015,Itaim Bibi,São Paulo,-23.5845,-46.6812,465.02,67.09,67.6,2025-10-01T22:57:42.384-03:00
S018,Pampulha,Belo Horizonte,-19.8513,-43.9586,508.66,85.9,50.09,2025-10-01T22:57:42.384-03:00
S023,Lago Sul,Brasília,-15.825,-47.853,481.44,81.99,60.41,2025-10-01T22:57:42.384-03:00
S024,Lago Norte,Brasília,-15.763,-47.807,530.21,68.15,77.86,2025-10-01T22:57:42.384-03:00
S028,Meireles,Fortaleza,-3.7295,-38.5216,461.58,42.47,71.49,2025-10-01T22:57:42.384-03:00
