station_id,station_name,city,latitude,longitude,avg_CO2,avg_PM2_5,avg_O3,processing_time
S009,Lagoa,Rio de Janeiro,-22.9745,-43.2041,473.91,44.9,70.04,2025-10-01T22:56:10.088-03:00
S015,Itaim Bibi,São Paulo,-23.5845,-46.6812,523.71,77.22,51.73,2025-10-01T22:56:10.088-03:00
S023,Lago Sul,Brasília,-15.825,-47.853,455.79,81.33,78.44,2025-10-01T22:56:10.088-03:00
S032,Barra,Salvador,-12.981,-38.51,514.56,70.68,62.03,2025-10-01T22:56:10.088-03:00
S011,Vila Madalena,São Paulo,-23.5567,-46.6892,524.76,81.05,75.08,2025-10-01T22:56:10.088-03:00
S034,Batel,Curitiba,-25.4284,-49.2733,477.27,81.06,64.04,2025-10-01T22:56:10.088-03:00
