timestamp,station_id,station_name,latitude,longitude,city,CO2,PM2_5,O3
2025-10-01 22:09:18,RJ001,Centro,-22.9068,-43.1729,Rio de Janeiro,403.8,25.36,51.46
2025-10-01 22:09:18,RJ002,Copacabana,-22.9687,-43.1869,Rio de Janeiro,400.97,15.34,40.18
2025-10-01 22:09:18,RJ003,Tijuca,-22.9309,-43.2376,Rio de Janeiro,398.86,33.0,51.19
2025-10-01 22:09:18,RJ004,Nova Iguaçu,-22.7598,-43.4516,Nova Iguaçu,551.89,57.64,56.44
2025-10-01 22:09:18,RJ005,Niterói,-22.8832,-43.1034,Niterói,386.78,34.03,31.66
2025-10-01 22:09:18,RJ006,Petrópolis,-22.505,-43.1786,Petrópolis,402.83,32.81,39.54
2025-10-01 22:09:18,RJ007,Campos dos Goytacazes,-21.7622,-41.3181,Campos dos Goytacazes,382.37,21.36,58.6
2025-10-01 22:09:18,RJ008,Volta Redonda,-22.5202,-44.0996,Volta Redonda,385.76,22.98,51.84
2025-10-01 22:09:18,SP001,Paulista,-23.5614,-46.6559,São Paulo,398.63,19.71,48.59
2025-10-01 22:09:18,SP002,Pinheiros,-23.561,-46.7025,São Paulo,408.14,23.61,53.41
2025-10-01 22:09:18,SP003,Ibirapuera,-23.5874,-46.6576,São Paulo,407.33,26.71,37.35
2025-10-01 22:09:18,SP004,Campinas,-22.9099,-47.0626,Campinas,395.28,34.15,50.69
2025-10-01 22:09:18,SP005,Santos,-23.954,-46.3336,Santos,414.2,30.59,36.71
2025-10-01 22:09:18,SP006,São José dos Campos,-23.2237,-45.9009,São José dos Campos,414.62,26.09,34.12
2025-10-01 22:09:18,SP007,Sorocaba,-23.5015,-47.4526,Sorocaba,413.4,20.24,58.4
2025-10-01 22:09:18,SP008,Ribeirão Preto,-21.1786,-47.8066,Ribeirão Preto,395.0,25.8,47.1
2025-10-01 22:09:18,MG001,Savassi,-19.935,-43.9336,Belo Horizonte,404.16,29.24,42.21
2025-10-01 22:09:18,MG002,Pampulha,-19.8522,-43.9766,Belo Horizonte,391.07,28.53,40.29
2025-10-01 22:09:18,MG003,Uberlândia,-18.9188,-48.2768,Uberlândia,388.79,16.6,34.02
2025-10-01 22:09:18,MG004,Juiz de Fora,-21.7622,-43.3434,Juiz de Fora,404.97,29.41,56.12
2025-10-01 22:09:18,MG005,Montes Claros,-16.7282,-43.8578,Montes Claros,393.25,29.16,51.46
2025-10-01 22:09:18,MG006,Uberaba,-19.7477,-47.931,Uberaba,412.45,34.81,31.77
2025-10-01 22:09:18,MG007,Ouro Preto,-20.3856,-43.5036,Ouro Preto,408.51,27.38,34.0
2025-10-01 22:09:18,ES001,Vitória,-20.3155,-40.3128,Vitória,416.98,29.09,55.32
2025-10-01 22:09:18,ES002,Vila Velha,-20.3417,-40.2875,Vila Velha,382.2,15.03,41.19
2025-10-01 22:09:18,ES003,Serra,-20.1211,-40.3074,Serra,381.84,33.67,58.58
2025-10-01 22:09:18,ES004,Cariacica,-20.2637,-40.4165,Cariacica,387.12,16.33,57.76
2025-10-01 22:09:18,ES005,Guarapari,-20.6771,-40.5093,Guarapari,385.46,28.4,40.08
