timestamp,station_id,station_name,latitude,longitude,city,CO2,PM2_5,O3
2025-10-01 22:58:07,RJ001,Centro,-22.9068,-43.1729,Rio de Janeiro,418.89,29.64,53.18
2025-10-01 22:58:07,RJ002,Copacabana,-22.9687,-43.1869,Rio de Janeiro,413.34,17.38,45.06
2025-10-01 22:58:07,RJ003,Tijuca,-22.9309,-43.2376,Rio de Janeiro,380.21,32.1,57.98
2025-10-01 22:58:07,RJ004,Nova Iguaçu,-22.7598,-43.4516,Nova Iguaçu,541.13,73.61,78.56
2025-10-01 22:58:07,RJ005,Niterói,-22.8832,-43.1034,Niterói,395.39,20.37,55.72
2025-10-01 22:58:07,RJ006,Petrópolis,-22.505,-43.1786,Petrópolis,413.79,17.92,34.5
2025-10-01 22:58:07,RJ007,Campos dos Goytacazes,-21.7622,-41.3181,Campos dos Goytacazes,411.35,34.86,53.22
2025-10-01 22:58:07,RJ008,Volta Redonda,-22.5202,-44.0996,Volta Redonda,418.35,28.29,33.03
2025-10-01 22:58:07,SP001,Paulista,-23.5614,-46.6559,São Paulo,474.95,59.8,60.84
2025-10-01 22:58:07,SP002,Pinheiros,-23.561,-46.7025,São Paulo,391.58,21.23,58.28
2025-10-01 22:58:07,SP003,Ibirapuera,-23.5874,-46.6576,São Paulo,563.61,62.29,57.29
2025-10-01 22:58:07,SP004,Campinas,-22.9099,-47.0626,Campinas,405.44,16.54,40.1
2025-10-01 22:58:07,SP005,Santos,-23.954,-46.3336,Santos,382.48,33.05,33.35
2025-10-01 22:58:07,SP006,São José dos Campos,-23.2237,-45.9009,São José dos Campos,415.16,31.93,44.69
2025-10-01 22:58:07,SP007,Sorocaba,-23.5015,-47.4526,Sorocaba,535.36,60.41,68.1
2025-10-01 22:58:07,SP008,Ribeirão Preto,-21.1786,-47.8066,Ribeirão Preto,406.49,32.1,35.01
2025-10-01 22:58:07,MG001,Savassi,-19.935,-43.9336,Belo Horizonte,419.16,25.52,55.05
2025-10-01 22:58:07,MG002,Pampulha,-19.8522,-43.9766,Belo Horizonte,395.01,21.38,51.92
2025-10-01 22:58:07,MG003,Uberlândia,-18.9188,-48.2768,Uberlândia,417.87,26.31,43.95
2025-10-01 22:58:07,MG004,Juiz de Fora,-21.7622,-43.3434,Juiz de Fora,388.81,32.21,43.14
2025-10-01 22:58:07,MG005,Montes Claros,-16.7282,-43.8578,Montes Claros,415.6,20.74,36.69
2025-10-01 22:58:07,MG006,Uberaba,-19.7477,-47.931,Uberaba,525.21,91.14,61.32
2025-10-01 22:58:07,MG007,Ouro Preto,-20.3856,-43.5036,Ouro Preto,410.01,33.48,36.03
2025-10-01 22:58:07,ES001,Vitória,-20.3155,-40.3128,Vitória,396.86,29.18,32.2
2025-10-01 22:58:07,ES002,Vila Velha,-20.3417,-40.2875,Vila Velha,415.46,27.24,39.97
2025-10-01 22:58:07,ES003,Serra,-20.1211,-40.3074,Serra,401.78,23.23,53.54
2025-10-01 22:58:07,ES004,Cariacica,-20.2637,-40.4165,Cariacica,385.16,20.4,35.02
2025-10-01 22:58:07,ES005,Guarapari,-20.6771,-40.5093,Guarapari,392.54,25.77,35.8
