timestamp,station_id,station_name,latitude,longitude,city,CO2,PM2_5,O3
2025-10-01 22:09:30,S001,Centro,-22.9068,-43.1729,Rio de Janeiro,388.03,18.28,52.34
2025-10-01 22:09:30,S002,Copacabana,-22.9687,-43.1869,Rio de Janeiro,383.49,16.72,40.19
2025-10-01 22:09:30,S003,Tijuca,-22.9309,-43.2376,Rio de Janeiro,385.7,25.82,37.61
2025-10-01 22:09:30,S004,Nova Iguaçu,-22.7598,-43.4516,Rio de Janeiro,404.71,22.39,31.24
2025-10-01 22:09:30,S005,Botafogo,-22.9509,-43.1815,Rio de Janeiro,401.93,23.79,41.84
2025-10-01 22:09:30,S006,Leblon,-22.9831,-43.2227,Rio de Janeiro,402.44,27.52,58.75
2025-10-01 22:09:30,S007,Ipanema,-22.9839,-43.206,Rio de Janeiro,384.46,16.7,30.55
2025-10-01 22:09:30,S008,Barra da Tijuca,-23.0007,-43.3653,Rio de Janeiro,418.52,32.09,43.93
2025-10-01 22:09:30,S009,Lagoa,-22.9745,-43.2041,Rio de Janeiro,460.28,43.12,64.17
2025-10-01 22:09:30,S010,Jardim Paulista,-23.5711,-46.652,São Paulo,393.15,29.95,44.78
2025-10-01 22:09:30,S011,Vila Madalena,-23.5567,-46.6892,São Paulo,395.77,20.83,58.21
2025-10-01 22:09:30,S012,Pinheiros,-23.5675,-46.7016,São Paulo,509.06,86.91,56.19
2025-10-01 22:09:30,S013,Moema,-23.6008,-46.6739,São Paulo,417.59,33.23,56.84
2025-10-01 22:09:30,S014,Bela Vista,-23.5644,-46.6472,São Paulo,399.63,31.7,38.84
2025-10-01 22:09:30,S015,Itaim Bibi,-23.5845,-46.6812,São Paulo,407.5,28.74,59.92
2025-10-01 22:09:30,S016,Liberdade,-23.57,-46.632,São Paulo,410.99,16.48,32.69
2025-10-01 22:09:30,S017,Savassi,-19.9311,-43.9378,Belo Horizonte,405.35,24.23,43.84
2025-10-01 22:09:30,S018,Pampulha,-19.8513,-43.9586,Belo Horizonte,409.33,20.83,59.13
2025-10-01 22:09:30,S019,Funcionários,-19.9305,-43.9381,Belo Horizonte,437.85,45.71,81.99
2025-10-01 22:09:30,S020,Belvedere,-19.932,-43.957,Belo Horizonte,383.16,23.54,52.18
2025-10-01 22:09:30,S021,Asa Sul,-15.7974,-47.8825,Brasília,393.1,27.97,57.71
2025-10-01 22:09:30,S022,Asa Norte,-15.7747,-47.885,Brasília,399.03,20.54,58.73
2025-10-01 22:09:30,S023,Lago Sul,-15.825,-47.853,Brasília,383.1,33.93,44.88
2025-10-01 22:09:30,S024,Lago Norte,-15.763,-47.807,Brasília,398.87,21.32,32.71
2025-10-01 22:09:30,S025,Boa Viagem,-8.1125,-34.9036,Recife,389.97,26.25,39.55
2025-10-01 22:09:30,S026,Graças,-8.0526,-34.8944,Recife,418.91,28.3,30.34
2025-10-01 22:09:30,S027,Espinheiro,-8.049,-34.906,Recife,546.95,69.62,51.75
2025-10-01 22:09:30,S028,Meireles,-3.7295,-38.5216,Fortaleza,389.44,23.37,57.23
2025-10-01 22:09:30,S029,Aldeota,-3.7273,-38.519,Fortaleza,398.75,27.55,51.22
2025-10-01 22:09:30,S030,Praia de Iracema,-3.717,-38.536,Fortaleza,397.08,27.53,45.79
2025-10-01 22:09:30,S031,Centro Histórico,-12.9711,-38.51,Salvador,398.17,20.8,54.19
2025-10-01 22:09:30,S032,Barra,-12.981,-38.51,Salvador,389.91,22.2,36.83
2025-10-01 22:09:30,S033,Ondina,-12.9782,-38.503,Salvador,400.37,19.37,36.26
2025-10-01 22:09:30,S034,Batel,-25.4284,-49.2733,Curitiba,387.11,33.2,51.3
2025-10-01 22:09:30,S035,Centro,-25.4287,-49.2731,Curitiba,411.02,17.33,36.64
2025-10-01 22:09:30,S036,Água Verde,-25.448,-49.282,Curitiba,405.98,33.78,56.89
2025-10-01 22:09:30,S037,Cabral,-25.419,-49.269,Curitiba,553.39,60.41,63.76
2025-10-01 22:09:30,S038,Moinhos de Vento,-30.0346,-51.216,Porto Alegre,388.38,29.74,44.11
2025-10-01 22:09:30,S039,Centro Histórico,-30.0277,-51.2287,Porto Alegre,402.41,18.87,43.43
2025-10-01 22:09:30,S040,Petrópolis,-30.0215,-51.2005,Porto Alegre,477.45,45.81,57.36
2025-10-01 22:09:30,S041,Cidade Baixa,-30.033,-51.224,Porto Alegre,531.33,44.73,62.6
2025-10-01 22:09:30,S042,Praia de Belas,-30.053,-51.212,Porto Alegre,392.83,25.47,57.11
2025-10-01 22:09:30,S043,Boa Vista,-3.0653,-60.025,Manaus,393.98,29.13,39.54
2025-10-01 22:09:30,S044,Centro,-3.119,-60.0217,Manaus,401.37,16.39,44.76
2025-10-01 22:09:30,S045,Aleixo,-3.1272,-60.005,Manaus,395.2,22.95,47.3
2025-10-01 22:09:30,S046,Centro,-1.455,-48.503,Belém,410.83,31.92,35.6
2025-10-01 22:09:30,S047,Reduto,-1.44,-48.502,Belém,410.82,34.64,50.74
2025-10-01 22:09:30,S048,Cidade Velha,-1.465,-48.492,Belém,409.06,17.65,30.97
2025-10-01 22:09:30,S049,Setor Oeste,-16.686,-49.262,Goiânia,392.14,17.92,31.7
2025-10-01 22:09:30,S050,Setor Bueno,-16.678,-49.255,Goiânia,414.8,24.6,46.37
2025-10-01 22:09:30,S051,Savassi,-19.935,-43.935,Belo Horizonte,387.92,29.03,48.33
