timestamp,station_id,station_name,latitude,longitude,city,CO2,PM2_5,O3
2025-10-01 22:03:10,S001,Centro,-22.9068,-43.1729,Rio de Janeiro,413.95,15.51,36.3
2025-10-01 22:03:10,S002,Copacabana,-22.9687,-43.1869,Rio de Janeiro,397.07,27.29,54.58
2025-10-01 22:03:10,S003,Tijuca,-22.9309,-43.2376,Rio de Janeiro,410.31,26.71,36.05
2025-10-01 22:03:10,S004,Nova Iguaçu,-22.7598,-43.4516,Rio de Janeiro,395.06,20.62,42.38
2025-10-01 22:03:10,S005,Botafogo,-22.9509,-43.1815,Rio de Janeiro,522.38,53.44,70.4
2025-10-01 22:03:10,S006,Leblon,-22.9831,-43.2227,Rio de Janeiro,397.22,28.31,50.05
2025-10-01 22:03:10,S007,Ipanema,-22.9839,-43.206,Rio de Janeiro,524.78,73.43,68.45
2025-10-01 22:03:10,S008,Barra da Tijuca,-23.0007,-43.3653,Rio de Janeiro,393.39,24.82,52.15
2025-10-01 22:03:10,S009,Lagoa,-22.9745,-43.2041,Rio de Janeiro,387.44,34.6,59.96
2025-10-01 22:03:10,S010,Jardim Paulista,-23.5711,-46.652,São Paulo,408.22,26.68,59.94
2025-10-01 22:03:10,S011,Vila Madalena,-23.5567,-46.6892,São Paulo,381.88,21.84,51.91
2025-10-01 22:03:10,S012,Pinheiros,-23.5675,-46.7016,São Paulo,396.8,19.91,48.04
2025-10-01 22:03:10,S013,Moema,-23.6008,-46.6739,São Paulo,402.18,22.88,55.06
2025-10-01 22:03:10,S014,Bela Vista,-23.5644,-46.6472,São Paulo,477.47,70.8,70.24
2025-10-01 22:03:10,S015,Itaim Bibi,-23.5845,-46.6812,São Paulo,381.06,34.49,42.42
2025-10-01 22:03:10,S016,Liberdade,-23.57,-46.632,São Paulo,404.29,31.79,50.11
2025-10-01 22:03:10,S017,Savassi,-19.9311,-43.9378,Belo Horizonte,417.38,25.9,43.71
2025-10-01 22:03:10,S018,Pampulha,-19.8513,-43.9586,Belo Horizonte,408.22,20.54,55.19
2025-10-01 22:03:10,S019,Funcionários,-19.9305,-43.9381,Belo Horizonte,395.02,19.2,49.66
2025-10-01 22:03:10,S020,Belvedere,-19.932,-43.957,Belo Horizonte,396.24,22.67,54.74
2025-10-01 22:03:10,S021,Asa Sul,-15.7974,-47.8825,Brasília,399.54,16.93,47.73
2025-10-01 22:03:10,S022,Asa Norte,-15.7747,-47.885,Brasília,394.26,34.37,57.75
2025-10-01 22:03:10,S023,Lago Sul,-15.825,-47.853,Brasília,418.9,23.03,43.44
2025-10-01 22:03:10,S024,Lago Norte,-15.763,-47.807,Brasília,513.18,85.9,79.03
2025-10-01 22:03:10,S025,Boa Viagem,-8.1125,-34.9036,Recife,409.57,17.74,34.42
2025-10-01 22:03:10,S026,Graças,-8.0526,-34.8944,Recife,385.1,24.87,43.66
2025-10-01 22:03:10,S027,Espinheiro,-8.049,-34.906,Recife,416.03,25.76,31.54
2025-10-01 22:03:10,S028,Meireles,-3.7295,-38.5216,Fortaleza,382.78,16.43,36.67
2025-10-01 22:03:10,S029,Aldeota,-3.7273,-38.519,Fortaleza,417.28,21.46,36.38
2025-10-01 22:03:10,S030,Praia de Iracema,-3.717,-38.536,Fortaleza,532.19,84.17,53.63
2025-10-01 22:03:10,S031,Centro Histórico,-12.9711,-38.51,Salvador,410.9,20.82,49.23
2025-10-01 22:03:10,S032,Barra,-12.981,-38.51,Salvador,406.81,20.61,44.47
2025-10-01 22:03:10,S033,Ondina,-12.9782,-38.503,Salvador,389.6,27.44,56.16
2025-10-01 22:03:10,S034,Batel,-25.4284,-49.2733,Curitiba,486.77,49.25,71.81
2025-10-01 22:03:10,S035,Centro,-25.4287,-49.2731,Curitiba,395.73,15.17,31.6
2025-10-01 22:03:10,S036,Água Verde,-25.448,-49.282,Curitiba,520.53,70.16,78.92
2025-10-01 22:03:10,S037,Cabral,-25.419,-49.269,Curitiba,387.51,21.79,38.13
2025-10-01 22:03:10,S038,Moinhos de Vento,-30.0346,-51.216,Porto Alegre,399.39,33.44,39.06
2025-10-01 22:03:10,S039,Centro Histórico,-30.0277,-51.2287,Porto Alegre,393.33,32.0,46.76
2025-10-01 22:03:10,S040,Petrópolis,-30.0215,-51.2005,Porto Alegre,393.87,22.26,59.72
2025-10-01 22:03:10,S041,Cidade Baixa,-30.033,-51.224,Porto Alegre,393.93,27.18,56.02
2025-10-01 22:03:10,S042,Praia de Belas,-30.053,-51.212,Porto Alegre,383.58,34.88,33.61
2025-10-01 22:03:10,S043,Boa Vista,-3.0653,-60.025,Manaus,502.01,69.87,71.09
2025-10-01 22:03:10,S044,Centro,-3.119,-60.0217,Manaus,412.75,16.31,48.04
2025-10-01 22:03:10,S045,Aleixo,-3.1272,-60.005,Manaus,412.68,20.03,44.19
2025-10-01 22:03:10,S046,Centro,-1.455,-48.503,Belém,392.92,22.49,33.28
2025-10-01 22:03:10,S047,Reduto,-1.44,-48.502,Belém,387.19,17.81,45.73
2025-10-01 22:03:10,S048,Cidade Velha,-1.465,-48.492,Belém,493.77,58.36,64.76
2025-10-01 22:03:10,S049,Setor Oeste,-16.686,-49.262,Goiânia,397.86,22.25,57.67
2025-10-01 22:03:10,S050,Setor Bueno,-16.678,-49.255,Goiânia,383.34,31.92,54.98
2025-10-01 22:03:10,S051,Savassi,-19.935,-43.935,Belo Horizonte,402.41,32.75,33.85
