timestamp,station_id,station_name,latitude,longitude,city,CO2,PM2_5,O3
2025-10-01 22:07:11,RJ001,Centro,-22.9068,-43.1729,Rio de Janeiro,391.45,23.55,42.15
2025-10-01 22:07:11,RJ002,Copacabana,-22.9687,-43.1869,Rio de Janeiro,409.89,20.03,49.25
2025-10-01 22:07:11,RJ003,Tijuca,-22.9309,-43.2376,Rio de Janeiro,410.84,29.67,48.68
2025-10-01 22:07:11,RJ004,Nova Iguaçu,-22.7598,-43.4516,Nova Iguaçu,404.77,31.7,37.98
2025-10-01 22:07:11,RJ005,Niterói,-22.8832,-43.1034,Niterói,399.11,20.02,49.41
2025-10-01 22:07:11,RJ006,Petrópolis,-22.505,-43.1786,Petrópolis,396.27,33.67,44.53
2025-10-01 22:07:11,RJ007,Campos dos Goytacazes,-21.7622,-41.3181,Campos dos Goytacazes,456.08,86.25,59.8
2025-10-01 22:07:11,RJ008,Volta Redonda,-22.5202,-44.0996,Volta Redonda,385.84,29.88,41.53
2025-10-01 22:07:11,SP001,Paulista,-23.5614,-46.6559,São Paulo,409.86,25.27,37.22
2025-10-01 22:07:11,SP002,Pinheiros,-23.561,-46.7025,São Paulo,404.38,17.68,31.27
2025-10-01 22:07:11,SP003,Ibirapuera,-23.5874,-46.6576,São Paulo,408.06,28.49,33.19
2025-10-01 22:07:11,SP004,Campinas,-22.9099,-47.0626,Campinas,380.81,18.61,48.24
2025-10-01 22:07:11,SP005,Santos,-23.954,-46.3336,Santos,402.4,22.38,58.86
2025-10-01 22:07:11,SP006,São José dos Campos,-23.2237,-45.9009,São José dos Campos,416.04,25.16,56.66
2025-10-01 22:07:11,SP007,Sorocaba,-23.5015,-47.4526,Sorocaba,402.12,26.35,50.94
2025-10-01 22:07:11,SP008,Ribeirão Preto,-21.1786,-47.8066,Ribeirão Preto,389.1,21.11,57.52
2025-10-01 22:07:11,MG001,Savassi,-19.935,-43.9336,Belo Horizonte,386.56,22.3,45.41
2025-10-01 22:07:11,MG002,Pampulha,-19.8522,-43.9766,Belo Horizonte,415.53,19.96,48.42
2025-10-01 22:07:11,MG003,Uberlândia,-18.9188,-48.2768,Uberlândia,410.77,19.23,33.17
2025-10-01 22:07:11,MG004,Juiz de Fora,-21.7622,-43.3434,Juiz de Fora,494.5,51.44,62.54
2025-10-01 22:07:11,MG005,Montes Claros,-16.7282,-43.8578,Montes Claros,397.98,31.5,43.57
2025-10-01 22:07:11,MG006,Uberaba,-19.7477,-47.931,Uberaba,384.88,22.06,37.75
2025-10-01 22:07:11,MG007,Ouro Preto,-20.3856,-43.5036,Ouro Preto,400.45,16.74,44.7
2025-10-01 22:07:11,ES001,Vitória,-20.3155,-40.3128,Vitória,383.76,29.57,55.27
2025-10-01 22:07:11,ES002,Vila Velha,-20.3417,-40.2875,Vila Velha,406.93,28.01,48.6
2025-10-01 22:07:11,ES003,Serra,-20.1211,-40.3074,Serra,418.28,26.0,35.48
2025-10-01 22:07:11,ES004,Cariacica,-20.2637,-40.4165,Cariacica,413.72,16.59,35.85
2025-10-01 22:07:11,ES005,Guarapari,-20.6771,-40.5093,Guarapari,458.39,63.62,72.7
