timestamp,station_id,station_name,latitude,longitude,city,CO2,PM2_5,O3
2025-10-01 22:01:43,S001,Centro,-22.9068,-43.1729,Rio de Janeiro,385.84,28.66,49.02
2025-10-01 22:01:43,S002,Copacabana,-22.9687,-43.1869,Rio de Janeiro,541.84,63.99,75.48
2025-10-01 22:01:43,S003,Tijuca,-22.9309,-43.2376,Rio de Janeiro,389.99,18.74,54.46
2025-10-01 22:01:43,S004,Nova Iguaçu,-22.7598,-43.4516,Rio de Janeiro,381.41,29.15,54.03
2025-10-01 22:01:43,S005,Botafogo,-22.9509,-43.1815,Rio de Janeiro,395.2,22.13,49.81
2025-10-01 22:01:43,S006,Leblon,-22.9831,-43.2227,Rio de Janeiro,485.22,80.81,42.06
2025-10-01 22:01:43,S007,Ipanema,-22.9839,-43.206,Rio de Janeiro,401.6,15.99,42.56
2025-10-01 22:01:43,S008,Barra da Tijuca,-23.0007,-43.3653,Rio de Janeiro,396.71,27.36,31.09
2025-10-01 22:01:43,S009,Lagoa,-22.9745,-43.2041,Rio de Janeiro,481.94,70.91,83.85
2025-10-01 22:01:43,S010,Jardim Paulista,-23.5711,-46.652,São Paulo,386.9,29.72,39.6
2025-10-01 22:01:43,S011,Vila Madalena,-23.5567,-46.6892,São Paulo,388.2,17.37,30.88
2025-10-01 22:01:43,S012,Pinheiros,-23.5675,-46.7016,São Paulo,401.54,21.19,34.38
2025-10-01 22:01:43,S013,Moema,-23.6008,-46.6739,São Paulo,414.05,30.75,34.9
2025-10-01 22:01:43,S014,Bela Vista,-23.5644,-46.6472,São Paulo,411.31,34.73,43.04
2025-10-01 22:01:43,S015,Itaim Bibi,-23.5845,-46.6812,São Paulo,394.53,16.25,35.22
2025-10-01 22:01:43,S016,Liberdade,-23.57,-46.632,São Paulo,392.27,31.35,49.6
2025-10-01 22:01:43,S017,Savassi,-19.9311,-43.9378,Belo Horizonte,398.34,27.24,50.89
2025-10-01 22:01:43,S018,Pampulha,-19.8513,-43.9586,Belo Horizonte,402.4,26.4,32.24
2025-10-01 22:01:43,S019,Funcionários,-19.9305,-43.9381,Belo Horizonte,395.08,29.88,45.26
2025-10-01 22:01:43,S020,Belvedere,-19.932,-43.957,Belo Horizonte,411.91,28.17,44.44
2025-10-01 22:01:43,S021,Asa Sul,-15.7974,-47.8825,Brasília,408.1,20.32,53.33
2025-10-01 22:01:43,S022,Asa Norte,-15.7747,-47.885,Brasília,386.78,18.13,49.86
2025-10-01 22:01:43,S023,Lago Sul,-15.825,-47.853,Brasília,410.86,26.39,50.41
2025-10-01 22:01:43,S024,Lago Norte,-15.763,-47.807,Brasília,399.5,16.55,58.7
2025-10-01 22:01:43,S025,Boa Viagem,-8.1125,-34.9036,Recife,404.51,23.55,49.08
2025-10-01 22:01:43,S026,Graças,-8.0526,-34.8944,Recife,397.17,23.67,33.88
2025-10-01 22:01:43,S027,Espinheiro,-8.049,-34.906,Recife,390.34,29.52,53.18
2025-10-01 22:01:43,S028,Meireles,-3.7295,-38.5216,Fortaleza,412.5,16.97,34.14
2025-10-01 22:01:43,S029,Aldeota,-3.7273,-38.519,Fortaleza,406.04,22.08,47.4
2025-10-01 22:01:43,S030,Praia de Iracema,-3.717,-38.536,Fortaleza,395.35,16.09,52.19
2025-10-01 22:01:43,S031,Centro Histórico,-12.9711,-38.51,Salvador,385.12,15.79,32.44
2025-10-01 22:01:43,S032,Barra,-12.981,-38.51,Salvador,395.12,26.62,46.02
2025-10-01 22:01:43,S033,Ondina,-12.9782,-38.503,Salvador,383.97,27.6,39.74
2025-10-01 22:01:43,S034,Batel,-25.4284,-49.2733,Curitiba,395.65,25.76,55.11
2025-10-01 22:01:43,S035,Centro,-25.4287,-49.2731,Curitiba,481.81,51.89,68.02
2025-10-01 22:01:43,S036,Água Verde,-25.448,-49.282,Curitiba,390.74,15.35,52.14
2025-10-01 22:01:43,S037,Cabral,-25.419,-49.269,Curitiba,388.33,18.05,46.18
2025-10-01 22:01:43,S038,Moinhos de Vento,-30.0346,-51.216,Porto Alegre,409.32,26.69,36.03
2025-10-01 22:01:43,S039,Centro Histórico,-30.0277,-51.2287,Porto Alegre,390.56,16.81,34.47
2025-10-01 22:01:43,S040,Petrópolis,-30.0215,-51.2005,Porto Alegre,401.79,25.33,45.24
2025-10-01 22:01:43,S041,Cidade Baixa,-30.033,-51.224,Porto Alegre,456.31,72.58,53.79
2025-10-01 22:01:43,S042,Praia de Belas,-30.053,-51.212,Porto Alegre,396.32,18.44,53.86
2025-10-01 22:01:43,S043,Boa Vista,-3.0653,-60.025,Manaus,404.72,28.36,44.62
2025-10-01 22:01:43,S044,Centro,-3.119,-60.0217,Manaus,468.68,75.14,59.54
2025-10-01 22:01:43,S045,Aleixo,-3.1272,-60.005,Manaus,414.6,25.71,53.64
2025-10-01 22:01:43,S046,Centro,-1.455,-48.503,Belém,415.66,16.62,47.2
2025-10-01 22:01:43,S047,Reduto,-1.44,-48.502,Belém,408.59,24.96,56.72
2025-10-01 22:01:43,S048,Cidade Velha,-1.465,-48.492,Belém,419.79,21.29,49.69
2025-10-01 22:01:43,S049,Setor Oeste,-16.686,-49.262,Goiânia,411.64,32.15,58.27
2025-10-01 22:01:43,S050,Setor Bueno,-16.678,-49.255,Goiânia,389.58,21.37,40.6
2025-10-01 22:01:43,S051,Savassi,-19.935,-43.935,Belo Horizonte,395.24,34.14,31.98
