timestamp,station_id,station_name,latitude,longitude,city,CO2,PM2_5,O3
2025-10-01 22:56:16,RJ001,Centro,-22.9068,-43.1729,Rio de Janeiro,403.73,15.05,57.14
2025-10-01 22:56:16,RJ002,Copacabana,-22.9687,-43.1869,Rio de Janeiro,413.04,31.47,43.1
2025-10-01 22:56:16,RJ003,Tijuca,-22.9309,-43.2376,Rio de Janeiro,406.73,15.8,35.62
2025-10-01 22:56:16,RJ004,Nova Iguaçu,-22.7598,-43.4516,Nova Iguaçu,402.66,33.19,34.54
2025-10-01 22:56:16,RJ005,Niterói,-22.8832,-43.1034,Niterói,417.87,20.88,36.53
2025-10-01 22:56:16,RJ006,Petrópolis,-22.505,-43.1786,Petrópolis,384.42,22.64,36.18
2025-10-01 22:56:16,RJ007,Campos dos Goytacazes,-21.7622,-41.3181,Campos dos Goytacazes,389.74,28.99,33.14
2025-10-01 22:56:16,RJ008,Volta Redonda,-22.5202,-44.0996,Volta Redonda,504.1,53.74,69.92
2025-10-01 22:56:16,SP001,Paulista,-23.5614,-46.6559,São Paulo,412.73,32.88,41.23
2025-10-01 22:56:16,SP002,Pinheiros,-23.561,-46.7025,São Paulo,417.43,22.64,37.87
2025-10-01 22:56:16,SP003,Ibirapuera,-23.5874,-46.6576,São Paulo,395.22,24.66,31.04
2025-10-01 22:56:16,SP004,Campinas,-22.9099,-47.0626,Campinas,397.35,26.39,35.9
2025-10-01 22:56:16,SP005,Santos,-23.954,-46.3336,Santos,478.3,49.73,74.16
2025-10-01 22:56:16,SP006,São José dos Campos,-23.2237,-45.9009,São José dos Campos,403.19,24.84,35.75
2025-10-01 22:56:16,SP007,Sorocaba,-23.5015,-47.4526,Sorocaba,386.07,31.76,56.51
2025-10-01 22:56:16,SP008,Ribeirão Preto,-21.1786,-47.8066,Ribeirão Preto,400.13,19.41,51.74
2025-10-01 22:56:16,MG001,Savassi,-19.935,-43.9336,Belo Horizonte,404.1,24.42,48.3
2025-10-01 22:56:16,MG002,Pampulha,-19.8522,-43.9766,Belo Horizonte,384.79,25.75,46.14
2025-10-01 22:56:16,MG003,Uberlândia,-18.9188,-48.2768,Uberlândia,405.86,18.55,49.86
2025-10-01 22:56:16,MG004,Juiz de Fora,-21.7622,-43.3434,Juiz de Fora,402.57,29.91,38.14
2025-10-01 22:56:16,MG005,Montes Claros,-16.7282,-43.8578,Montes Claros,385.91,27.39,54.92
2025-10-01 22:56:16,MG006,Uberaba,-19.7477,-47.931,Uberaba,393.86,22.0,36.18
2025-10-01 22:56:16,MG007,Ouro Preto,-20.3856,-43.5036,Ouro Preto,400.87,28.59,58.45
2025-10-01 22:56:16,ES001,Vitória,-20.3155,-40.3128,Vitória,415.65,34.81,51.83
2025-10-01 22:56:16,ES002,Vila Velha,-20.3417,-40.2875,Vila Velha,381.11,23.89,47.74
2025-10-01 22:56:16,ES003,Serra,-20.1211,-40.3074,Serra,410.94,27.37,30.86
2025-10-01 22:56:16,ES004,Cariacica,-20.2637,-40.4165,Cariacica,413.96,19.0,58.14
2025-10-01 22:56:16,ES005,Guarapari,-20.6771,-40.5093,Guarapari,395.21,17.6,34.44
