timestamp,station_id,station_name,latitude,longitude,city,CO2,PM2_5,O3
2025-10-01 21:58:38,S001,Centro,-22.9068,-43.1729,Rio de Janeiro,408.11,15.32,38.76
2025-10-01 21:58:38,S002,Copacabana,-22.9687,-43.1869,Rio de Janeiro,479.07,62.28,75.55
2025-10-01 21:58:38,S003,Tijuca,-22.9309,-43.2376,Rio de Janeiro,487.38,80.08,53.81
2025-10-01 21:58:38,S004,Nova Iguaçu,-22.7598,-43.4516,Rio de Janeiro,404.94,31.14,31.61
2025-10-01 21:58:38,S005,Botafogo,-22.9509,-43.1815,Rio de Janeiro,414.9,24.29,54.66
2025-10-01 21:58:38,S006,Leblon,-22.9831,-43.2227,Rio de Janeiro,419.04,19.94,56.1
2025-10-01 21:58:38,S007,Ipanema,-22.9839,-43.206,Rio de Janeiro,417.05,19.97,34.89
2025-10-01 21:58:38,S008,Barra da Tijuca,-23.0007,-43.3653,Rio de Janeiro,412.13,17.43,49.66
2025-10-01 21:58:38,S009,Lagoa,-22.9745,-43.2041,Rio de Janeiro,404.35,22.1,43.28
2025-10-01 21:58:38,S010,Jardim Paulista,-23.5711,-46.652,São Paulo,396.89,32.96,31.87
2025-10-01 21:58:38,S011,Vila Madalena,-23.5567,-46.6892,São Paulo,402.04,32.35,59.66
2025-10-01 21:58:38,S012,Pinheiros,-23.5675,-46.7016,São Paulo,417.44,23.92,38.38
2025-10-01 21:58:38,S013,Moema,-23.6008,-46.6739,São Paulo,395.94,26.6,42.93
2025-10-01 21:58:38,S014,Bela Vista,-23.5644,-46.6472,São Paulo,552.56,49.11,63.05
2025-10-01 21:58:38,S015,Itaim Bibi,-23.5845,-46.6812,São Paulo,400.45,26.67,42.4
2025-10-01 21:58:38,S016,Liberdade,-23.57,-46.632,São Paulo,547.22,90.56,69.77
2025-10-01 21:58:38,S017,Savassi,-19.9311,-43.9378,Belo Horizonte,390.44,18.86,59.26
2025-10-01 21:58:38,S018,Pampulha,-19.8513,-43.9586,Belo Horizonte,410.46,17.48,33.11
2025-10-01 21:58:38,S019,Funcionários,-19.9305,-43.9381,Belo Horizonte,406.39,22.61,54.43
2025-10-01 21:58:38,S020,Belvedere,-19.932,-43.957,Belo Horizonte,397.67,32.69,43.52
2025-10-01 21:58:38,S021,Asa Sul,-15.7974,-47.8825,Brasília,397.04,17.56,40.2
2025-10-01 21:58:38,S022,Asa Norte,-15.7747,-47.885,Brasília,413.03,27.25,57.32
2025-10-01 21:58:38,S023,Lago Sul,-15.825,-47.853,Brasília,411.55,30.19,34.9
2025-10-01 21:58:38,S024,Lago Norte,-15.763,-47.807,Brasília,505.86,77.15,73.14
2025-10-01 21:58:38,S025,Boa Viagem,-8.1125,-34.9036,Recife,389.59,26.91,31.38
2025-10-01 21:58:38,S026,Graças,-8.0526,-34.8944,Recife,410.72,18.63,31.86
2025-10-01 21:58:38,S027,Espinheiro,-8.049,-34.906,Recife,385.18,27.34,38.13
2025-10-01 21:58:38,S028,Meireles,-3.7295,-38.5216,Fortaleza,408.54,25.34,59.95
2025-10-01 21:58:38,S029,Aldeota,-3.7273,-38.519,Fortaleza,402.41,20.85,46.38
2025-10-01 21:58:38,S030,Praia de Iracema,-3.717,-38.536,Fortaleza,402.12,27.66,54.93
2025-10-01 21:58:38,S031,Centro Histórico,-12.9711,-38.51,Salvador,412.39,26.68,43.68
2025-10-01 21:58:38,S032,Barra,-12.981,-38.51,Salvador,387.18,28.62,37.77
2025-10-01 21:58:38,S033,Ondina,-12.9782,-38.503,Salvador,418.26,34.24,51.21
2025-10-01 21:58:38,S034,Batel,-25.4284,-49.2733,Curitiba,389.67,19.11,41.62
2025-10-01 21:58:38,S035,Centro,-25.4287,-49.2731,Curitiba,411.73,18.97,42.75
2025-10-01 21:58:38,S036,Água Verde,-25.448,-49.282,Curitiba,419.78,31.85,50.36
2025-10-01 21:58:38,S037,Cabral,-25.419,-49.269,Curitiba,397.22,33.39,45.0
2025-10-01 21:58:38,S038,Moinhos de Vento,-30.0346,-51.216,Porto Alegre,411.06,18.05,30.8
2025-10-01 21:58:38,S039,Centro Histórico,-30.0277,-51.2287,Porto Alegre,400.62,15.81,38.33
2025-10-01 21:58:38,S040,Petrópolis,-30.0215,-51.2005,Porto Alegre,407.78,28.99,48.13
2025-10-01 21:58:38,S041,Cidade Baixa,-30.033,-51.224,Porto Alegre,385.38,17.87,53.6
2025-10-01 21:58:38,S042,Praia de Belas,-30.053,-51.212,Porto Alegre,412.15,19.26,31.27
2025-10-01 21:58:38,S043,Boa Vista,-3.0653,-60.025,Manaus,511.04,87.5,78.36
2025-10-01 21:58:38,S044,Centro,-3.119,-60.0217,Manaus,398.68,34.26,55.89
2025-10-01 21:58:38,S045,Aleixo,-3.1272,-60.005,Manaus,390.74,25.62,48.96
2025-10-01 21:58:38,S046,Centro,-1.455,-48.503,Belém,384.03,34.56,51.44
2025-10-01 21:58:38,S047,Reduto,-1.44,-48.502,Belém,401.15,19.12,56.4
2025-10-01 21:58:38,S048,Cidade Velha,-1.465,-48.492,Belém,406.6,34.33,34.47
2025-10-01 21:58:38,S049,Setor Oeste,-16.686,-49.262,Goiânia,383.7,20.06,34.01
2025-10-01 21:58:38,S050,Setor Bueno,-16.678,-49.255,Goiânia,394.87,15.08,46.65
2025-10-01 21:58:38,S051,Savassi,-19.935,-43.935,Belo Horizonte,411.65,23.34,45.68
