timestamp,station_id,station_name,latitude,longitude,city,CO2,PM2_5,O3
2025-10-01 23:10:08,S001,Centro,-22.9068,-43.1729,Rio de Janeiro,384.34,24.92,54.72
2025-10-01 23:10:08,S002,Copacabana,-22.9687,-43.1869,Rio de Janeiro,416.83,23.26,47.04
2025-10-01 23:10:08,S003,Tijuca,-22.9309,-43.2376,Rio de Janeiro,407.08,32.8,30.98
2025-10-01 23:10:08,S004,Nova Iguaçu,-22.7598,-43.4516,Rio de Janeiro,395.5,30.19,37.39
2025-10-01 23:10:08,S005,Botafogo,-22.9509,-43.1815,Rio de Janeiro,406.6,29.57,33.9
2025-10-01 23:10:08,S006,Leblon,-22.9831,-43.2227,Rio de Janeiro,418.5,33.27,54.6
2025-10-01 23:10:08,S007,Ipanema,-22.9839,-43.206,Rio de Janeiro,412.85,23.11,49.88
2025-10-01 23:10:08,S008,Barra da Tijuca,-23.0007,-43.3653,Rio de Janeiro,403.24,32.23,35.03
2025-10-01 23:10:08,S009,Lagoa,-22.9745,-43.2041,Rio de Janeiro,414.85,21.89,47.83
2025-10-01 23:10:08,S010,Jardim Paulista,-23.5711,-46.652,São Paulo,412.05,30.07,50.81
2025-10-01 23:10:08,S011,Vila Madalena,-23.5567,-46.6892,São Paulo,393.09,26.08,58.42
2025-10-01 23:10:08,S012,Pinheiros,-23.5675,-46.7016,São Paulo,418.84,26.03,58.43
2025-10-01 23:10:08,S013,Moema,-23.6008,-46.6739,São Paulo,467.23,50.54,68.46
2025-10-01 23:10:08,S014,Bela Vista,-23.5644,-46.6472,São Paulo,402.67,15.27,54.68
2025-10-01 23:10:08,S015,Itaim Bibi,-23.5845,-46.6812,São Paulo,419.56,30.39,30.93
2025-10-01 23:10:08,S016,Liberdade,-23.57,-46.632,São Paulo,410.48,18.79,38.76
2025-10-01 23:10:08,S017,Savassi,-19.9311,-43.9378,Belo Horizonte,393.53,24.95,57.94
2025-10-01 23:10:08,S018,Pampulha,-19.8513,-43.9586,Belo Horizonte,380.54,28.45,51.29
2025-10-01 23:10:08,S019,Funcionários,-19.9305,-43.9381,Belo Horizonte,419.11,19.53,43.43
2025-10-01 23:10:08,S020,Belvedere,-19.932,-43.957,Belo Horizonte,465.84,66.29,71.2
2025-10-01 23:10:08,S021,Asa Sul,-15.7974,-47.8825,Brasília,402.49,26.48,59.55
2025-10-01 23:10:08,S022,Asa Norte,-15.7747,-47.885,Brasília,403.94,26.54,50.5
2025-10-01 23:10:08,S023,Lago Sul,-15.825,-47.853,Brasília,509.7,59.02,57.26
2025-10-01 23:10:08,S024,Lago Norte,-15.763,-47.807,Brasília,405.33,20.36,41.22
2025-10-01 23:10:08,S025,Boa Viagem,-8.1125,-34.9036,Recife,391.53,24.11,57.19
2025-10-01 23:10:08,S026,Graças,-8.0526,-34.8944,Recife,389.9,27.01,37.92
2025-10-01 23:10:08,S027,Espinheiro,-8.049,-34.906,Recife,401.79,30.87,49.64
2025-10-01 23:10:08,S028,Meireles,-3.7295,-38.5216,Fortaleza,403.81,28.51,30.21
2025-10-01 23:10:08,S029,Aldeota,-3.7273,-38.519,Fortaleza,387.72,21.01,33.03
2025-10-01 23:10:08,S030,Praia de Iracema,-3.717,-38.536,Fortaleza,390.52,29.36,49.64
2025-10-01 23:10:08,S031,Centro Histórico,-12.9711,-38.51,Salvador,384.46,25.91,34.67
2025-10-01 23:10:08,S032,Barra,-12.981,-38.51,Salvador,393.47,23.13,54.49
2025-10-01 23:10:08,S033,Ondina,-12.9782,-38.503,Salvador,398.59,32.04,59.18
2025-10-01 23:10:08,S034,Batel,-25.4284,-49.2733,Curitiba,416.72,34.49,43.7
2025-10-01 23:10:08,S035,Centro,-25.4287,-49.2731,Curitiba,399.57,30.0,55.98
2025-10-01 23:10:08,S036,Água Verde,-25.448,-49.282,Curitiba,403.35,34.82,49.76
2025-10-01 23:10:08,S037,Cabral,-25.419,-49.269,Curitiba,387.78,28.6,39.38
2025-10-01 23:10:08,S038,Moinhos de Vento,-30.0346,-51.216,Porto Alegre,387.84,15.07,59.75
2025-10-01 23:10:08,S039,Centro Histórico,-30.0277,-51.2287,Porto Alegre,389.52,17.69,34.57
2025-10-01 23:10:08,S040,Petrópolis,-30.0215,-51.2005,Porto Alegre,380.91,25.38,38.24
2025-10-01 23:10:08,S041,Cidade Baixa,-30.033,-51.224,Porto Alegre,387.31,15.02,36.8
2025-10-01 23:10:08,S042,Praia de Belas,-30.053,-51.212,Porto Alegre,392.19,30.25,59.59
2025-10-01 23:10:08,S043,Boa Vista,-3.0653,-60.025,Manaus,401.21,27.62,41.95
2025-10-01 23:10:08,S044,Centro,-3.119,-60.0217,Manaus,405.5,15.25,35.61
2025-10-01 23:10:08,S045,Aleixo,-3.1272,-60.005,Manaus,418.39,31.23,37.12
2025-10-01 23:10:08,S046,Centro,-1.455,-48.503,Belém,396.54,26.15,44.04
2025-10-01 23:10:08,S047,Reduto,-1.44,-48.502,Belém,404.16,24.88,49.24
2025-10-01 23:10:08,S048,Cidade Velha,-1.465,-48.492,Belém,519.92,45.45,64.39
2025-10-01 23:10:08,S049,Setor Oeste,-16.686,-49.262,Goiânia,380.35,30.48,46.63
2025-10-01 23:10:08,S050,Setor Bueno,-16.678,-49.255,Goiânia,411.57,20.55,51.62
2025-10-01 23:10:08,S051,Savassi,-19.935,-43.935,Belo Horizonte,383.5,20.74,41.06
