timestamp,station_id,station_name,latitude,longitude,city,CO2,PM2_5,O3
2025-10-01 22:07:12,S001,Centro,-22.9068,-43.1729,Rio de Janeiro,386.36,20.0,55.54
2025-10-01 22:07:12,S002,Copacabana,-22.9687,-43.1869,Rio de Janeiro,416.58,19.03,59.82
2025-10-01 22:07:12,S003,Tijuca,-22.9309,-43.2376,Rio de Janeiro,405.01,29.36,55.8
2025-10-01 22:07:12,S004,Nova Iguaçu,-22.7598,-43.4516,Rio de Janeiro,402.99,17.74,39.33
2025-10-01 22:07:12,S005,Botafogo,-22.9509,-43.1815,Rio de Janeiro,419.81,19.32,43.76
2025-10-01 22:07:12,S006,Leblon,-22.9831,-43.2227,Rio de Janeiro,390.6,34.68,47.74
2025-10-01 22:07:12,S007,Ipanema,-22.9839,-43.206,Rio de Janeiro,417.49,26.55,31.13
2025-10-01 22:07:12,S008,Barra da Tijuca,-23.0007,-43.3653,Rio de Janeiro,419.73,20.12,46.9
2025-10-01 22:07:12,S009,Lagoa,-22.9745,-43.2041,Rio de Janeiro,395.4,29.43,35.4
2025-10-01 22:07:12,S010,Jardim Paulista,-23.5711,-46.652,São Paulo,400.34,27.38,36.2
2025-10-01 22:07:12,S011,Vila Madalena,-23.5567,-46.6892,São Paulo,404.63,27.48,48.97
2025-10-01 22:07:12,S012,Pinheiros,-23.5675,-46.7016,São Paulo,396.74,29.06,42.19
2025-10-01 22:07:12,S013,Moema,-23.6008,-46.6739,São Paulo,387.6,31.95,56.07
2025-10-01 22:07:12,S014,Bela Vista,-23.5644,-46.6472,São Paulo,397.64,24.51,42.54
2025-10-01 22:07:12,S015,Itaim Bibi,-23.5845,-46.6812,São Paulo,414.97,24.87,48.72
2025-10-01 22:07:12,S016,Liberdade,-23.57,-46.632,São Paulo,417.9,27.99,46.58
2025-10-01 22:07:12,S017,Savassi,-19.9311,-43.9378,Belo Horizonte,403.57,17.19,53.06
2025-10-01 22:07:12,S018,Pampulha,-19.8513,-43.9586,Belo Horizonte,401.42,33.61,35.86
2025-10-01 22:07:12,S019,Funcionários,-19.9305,-43.9381,Belo Horizonte,402.84,24.31,33.84
2025-10-01 22:07:12,S020,Belvedere,-19.932,-43.957,Belo Horizonte,387.59,23.88,36.85
2025-10-01 22:07:12,S021,Asa Sul,-15.7974,-47.8825,Brasília,412.59,17.41,51.89
2025-10-01 22:07:12,S022,Asa Norte,-15.7747,-47.885,Brasília,414.22,18.46,39.49
2025-10-01 22:07:12,S023,Lago Sul,-15.825,-47.853,Brasília,394.1,21.64,58.82
2025-10-01 22:07:12,S024,Lago Norte,-15.763,-47.807,Brasília,418.43,33.1,52.35
2025-10-01 22:07:12,S025,Boa Viagem,-8.1125,-34.9036,Recife,404.36,16.68,33.21
2025-10-01 22:07:12,S026,Graças,-8.0526,-34.8944,Recife,398.27,22.4,56.82
2025-10-01 22:07:12,S027,Espinheiro,-8.049,-34.906,Recife,416.53,16.23,51.96
2025-10-01 22:07:12,S028,Meireles,-3.7295,-38.5216,Fortaleza,399.21,32.03,30.68
2025-10-01 22:07:12,S029,Aldeota,-3.7273,-38.519,Fortaleza,398.7,25.87,45.22
2025-10-01 22:07:12,S030,Praia de Iracema,-3.717,-38.536,Fortaleza,388.11,32.04,42.54
2025-10-01 22:07:12,S031,Centro Histórico,-12.9711,-38.51,Salvador,416.49,32.98,34.79
2025-10-01 22:07:12,S032,Barra,-12.981,-38.51,Salvador,507.54,65.18,83.72
2025-10-01 22:07:12,S033,Ondina,-12.9782,-38.503,Salvador,400.9,24.95,52.73
2025-10-01 22:07:12,S034,Batel,-25.4284,-49.2733,Curitiba,382.69,28.69,55.84
2025-10-01 22:07:12,S035,Centro,-25.4287,-49.2731,Curitiba,386.4,16.62,45.07
2025-10-01 22:07:12,S036,Água Verde,-25.448,-49.282,Curitiba,391.17,15.49,51.26
2025-10-01 22:07:12,S037,Cabral,-25.419,-49.269,Curitiba,402.2,27.9,48.58
2025-10-01 22:07:12,S038,Moinhos de Vento,-30.0346,-51.216,Porto Alegre,419.96,18.82,37.16
2025-10-01 22:07:12,S039,Centro Histórico,-30.0277,-51.2287,Porto Alegre,406.71,31.57,53.41
2025-10-01 22:07:12,S040,Petrópolis,-30.0215,-51.2005,Porto Alegre,395.2,30.17,31.06
2025-10-01 22:07:12,S041,Cidade Baixa,-30.033,-51.224,Porto Alegre,387.01,20.56,42.1
2025-10-01 22:07:12,S042,Praia de Belas,-30.053,-51.212,Porto Alegre,415.31,16.6,32.89
2025-10-01 22:07:12,S043,Boa Vista,-3.0653,-60.025,Manaus,413.94,28.29,30.93
2025-10-01 22:07:12,S044,Centro,-3.119,-60.0217,Manaus,393.36,27.23,45.47
2025-10-01 22:07:12,S045,Aleixo,-3.1272,-60.005,Manaus,381.18,17.32,49.22
2025-10-01 22:07:12,S046,Centro,-1.455,-48.503,Belém,382.4,16.74,40.56
2025-10-01 22:07:12,S047,Reduto,-1.44,-48.502,Belém,382.61,31.24,53.65
2025-10-01 22:07:12,S048,Cidade Velha,-1.465,-48.492,Belém,380.96,17.03,36.77
2025-10-01 22:07:12,S049,Setor Oeste,-16.686,-49.262,Goiânia,403.66,24.28,46.56
2025-10-01 22:07:12,S050,Setor Bueno,-16.678,-49.255,Goiânia,414.76,23.99,34.56
2025-10-01 22:07:12,S051,Savassi,-19.935,-43.935,Belo Horizonte,391.66,15.89,50.42
