timestamp,station_id,station_name,latitude,longitude,city,CO2,PM2_5,O3
2025-10-01 22:08:43,RJ001,Centro,-22.9068,-43.1729,Rio de Janeiro,394.97,32.38,49.57
2025-10-01 22:08:43,RJ002,Copacabana,-22.9687,-43.1869,Rio de Janeiro,385.97,28.97,32.68
2025-10-01 22:08:43,RJ003,Tijuca,-22.9309,-43.2376,Rio de Janeiro,404.58,33.95,30.72
2025-10-01 22:08:43,RJ004,Nova Iguaçu,-22.7598,-43.4516,Nova Iguaçu,382.34,18.99,46.94
2025-10-01 22:08:43,RJ005,Niterói,-22.8832,-43.1034,Niterói,395.23,34.27,43.64
2025-10-01 22:08:43,RJ006,Petrópolis,-22.505,-43.1786,Petrópolis,467.06,65.79,66.29
2025-10-01 22:08:43,RJ007,Campos dos Goytacazes,-21.7622,-41.3181,Campos dos Goytacazes,414.39,18.42,32.91
2025-10-01 22:08:43,RJ008,Volta Redonda,-22.5202,-44.0996,Volta Redonda,407.18,30.55,57.65
2025-10-01 22:08:43,SP001,Paulista,-23.5614,-46.6559,São Paulo,419.89,16.47,47.04
2025-10-01 22:08:43,SP002,Pinheiros,-23.561,-46.7025,São Paulo,417.08,19.56,31.59
2025-10-01 22:08:43,SP003,Ibirapuera,-23.5874,-46.6576,São Paulo,385.58,32.65,49.53
2025-10-01 22:08:43,SP004,Campinas,-22.9099,-47.0626,Campinas,391.87,20.22,38.88
2025-10-01 22:08:43,SP005,Santos,-23.954,-46.3336,Santos,411.19,31.94,44.8
2025-10-01 22:08:43,SP006,São José dos Campos,-23.2237,-45.9009,São José dos Campos,512.47,80.58,81.85
2025-10-01 22:08:43,SP007,Sorocaba,-23.5015,-47.4526,Sorocaba,386.71,17.08,32.85
2025-10-01 22:08:43,SP008,Ribeirão Preto,-21.1786,-47.8066,Ribeirão Preto,415.51,24.77,51.84
2025-10-01 22:08:43,MG001,Savassi,-19.935,-43.9336,Belo Horizonte,471.39,41.59,54.77
2025-10-01 22:08:43,MG002,Pampulha,-19.8522,-43.9766,Belo Horizonte,397.41,25.88,49.31
2025-10-01 22:08:43,MG003,Uberlândia,-18.9188,-48.2768,Uberlândia,410.5,34.24,34.27
2025-10-01 22:08:43,MG004,Juiz de Fora,-21.7622,-43.3434,Juiz de Fora,395.6,31.63,50.2
2025-10-01 22:08:43,MG005,Montes Claros,-16.7282,-43.8578,Montes Claros,401.93,17.82,38.64
2025-10-01 22:08:43,MG006,Uberaba,-19.7477,-47.931,Uberaba,380.97,28.06,56.87
2025-10-01 22:08:43,MG007,Ouro Preto,-20.3856,-43.5036,Ouro Preto,408.02,26.58,40.97
2025-10-01 22:08:43,ES001,Vitória,-20.3155,-40.3128,Vitória,395.83,29.34,40.22
2025-10-01 22:08:43,ES002,Vila Velha,-20.3417,-40.2875,Vila Velha,385.0,16.33,36.03
2025-10-01 22:08:43,ES003,Serra,-20.1211,-40.3074,Serra,387.38,24.06,47.18
2025-10-01 22:08:43,ES004,Cariacica,-20.2637,-40.4165,Cariacica,465.67,72.81,50.47
2025-10-01 22:08:43,ES005,Guarapari,-20.6771,-40.5093,Guarapari,382.34,19.19,51.71
