timestamp,station_id,station_name,latitude,longitude,city,CO2,PM2_5,O3
2025-10-01 23:11:38,RJ001,Centro,-22.9068,-43.1729,Rio de Janeiro,396.32,28.26,58.98
2025-10-01 23:11:38,RJ002,Copacabana,-22.9687,-43.1869,Rio de Janeiro,387.33,15.36,30.08
2025-10-01 23:11:38,RJ003,Tijuca,-22.9309,-43.2376,Rio de Janeiro,493.6,56.58,66.08
2025-10-01 23:11:38,RJ004,Nova Iguaçu,-22.7598,-43.4516,Nova Iguaçu,386.75,21.19,47.67
2025-10-01 23:11:38,RJ005,Niterói,-22.8832,-43.1034,Niterói,406.09,30.46,50.03
2025-10-01 23:11:38,RJ006,Petrópolis,-22.505,-43.1786,Petrópolis,482.45,58.62,56.66
2025-10-01 23:11:38,RJ007,Campos dos Goytacazes,-21.7622,-41.3181,Campos dos Goytacazes,413.03,28.0,37.81
2025-10-01 23:11:38,RJ008,Volta Redonda,-22.5202,-44.0996,Volta Redonda,384.39,29.22,52.71
2025-10-01 23:11:38,SP001,Paulista,-23.5614,-46.6559,São Paulo,382.92,28.51,42.35
2025-10-01 23:11:38,SP002,Pinheiros,-23.561,-46.7025,São Paulo,385.55,22.02,50.55
2025-10-01 23:11:38,SP003,Ibirapuera,-23.5874,-46.6576,São Paulo,412.82,15.5,55.1
2025-10-01 23:11:38,SP004,Campinas,-22.9099,-47.0626,Campinas,508.77,63.14,57.53
2025-10-01 23:11:38,SP005,Santos,-23.954,-46.3336,Santos,525.7,51.46,78.47
2025-10-01 23:11:38,SP006,São José dos Campos,-23.2237,-45.9009,São José dos Campos,539.78,62.45,76.8
2025-10-01 23:11:38,SP007,Sorocaba,-23.5015,-47.4526,Sorocaba,544.14,69.88,44.8
2025-10-01 23:11:38,SP008,Ribeirão Preto,-21.1786,-47.8066,Ribeirão Preto,399.89,29.0,53.35
2025-10-01 23:11:38,MG001,Savassi,-19.935,-43.9336,Belo Horizonte,404.36,22.86,31.72
2025-10-01 23:11:38,MG002,Pampulha,-19.8522,-43.9766,Belo Horizonte,407.93,26.64,46.34
2025-10-01 23:11:38,MG003,Uberlândia,-18.9188,-48.2768,Uberlândia,399.44,17.06,33.0
2025-10-01 23:11:38,MG004,Juiz de Fora,-21.7622,-43.3434,Juiz de Fora,419.7,31.39,33.87
2025-10-01 23:11:38,MG005,Montes Claros,-16.7282,-43.8578,Montes Claros,402.76,27.29,46.67
2025-10-01 23:11:38,MG006,Uberaba,-19.7477,-47.931,Uberaba,407.27,16.41,50.59
2025-10-01 23:11:38,MG007,Ouro Preto,-20.3856,-43.5036,Ouro Preto,461.15,93.51,60.84
2025-10-01 23:11:38,ES001,Vitória,-20.3155,-40.3128,Vitória,395.11,21.14,42.73
2025-10-01 23:11:38,ES002,Vila Velha,-20.3417,-40.2875,Vila Velha,404.94,22.27,39.05
2025-10-01 23:11:38,ES003,Serra,-20.1211,-40.3074,Serra,407.98,15.22,48.91
2025-10-01 23:11:38,ES004,Cariacica,-20.2637,-40.4165,Cariacica,386.47,33.08,48.4
2025-10-01 23:11:38,ES005,Guarapari,-20.6771,-40.5093,Guarapari,393.14,18.24,56.39
