timestamp,station_id,station_name,latitude,longitude,city,CO2,PM2_5,O3
2025-10-01 23:09:38,S001,Centro,-22.9068,-43.1729,Rio de Janeiro,385.07,20.06,57.82
2025-10-01 23:09:38,S002,Copacabana,-22.9687,-43.1869,Rio de Janeiro,397.33,22.96,42.37
2025-10-01 23:09:38,S003,Tijuca,-22.9309,-43.2376,Rio de Janeiro,387.07,29.17,35.77
2025-10-01 23:09:38,S004,Nova Iguaçu,-22.7598,-43.4516,Rio de Janeiro,386.66,32.75,42.92
2025-10-01 23:09:38,S005,Botafogo,-22.9509,-43.1815,Rio de Janeiro,388.53,19.54,42.4
2025-10-01 23:09:38,S006,Leblon,-22.9831,-43.2227,Rio de Janeiro,384.98,18.18,44.69
2025-10-01 23:09:38,S007,Ipanema,-22.9839,-43.206,Rio de Janeiro,418.91,24.18,30.95
2025-10-01 23:09:38,S008,Barra da Tijuca,-23.0007,-43.3653,Rio de Janeiro,388.97,23.59,31.94
2025-10-01 23:09:38,S009,Lagoa,-22.9745,-43.2041,Rio de Janeiro,398.51,16.72,47.4
2025-10-01 23:09:38,S010,Jardim Paulista,-23.5711,-46.652,São Paulo,381.18,28.05,58.73
2025-10-01 23:09:38,S011,Vila Madalena,-23.5567,-46.6892,São Paulo,397.16,30.12,35.44
2025-10-01 23:09:38,S012,Pinheiros,-23.5675,-46.7016,São Paulo,407.17,32.62,59.21
2025-10-01 23:09:38,S013,Moema,-23.6008,-46.6739,São Paulo,413.87,17.09,30.23
2025-10-01 23:09:38,S014,Bela Vista,-23.5644,-46.6472,São Paulo,398.57,18.73,36.28
2025-10-01 23:09:38,S015,Itaim Bibi,-23.5845,-46.6812,São Paulo,407.21,30.57,48.9
2025-10-01 23:09:38,S016,Liberdade,-23.57,-46.632,São Paulo,409.46,15.74,41.76
2025-10-01 23:09:38,S017,Savassi,-19.9311,-43.9378,Belo Horizonte,384.62,18.46,56.88
2025-10-01 23:09:38,S018,Pampulha,-19.8513,-43.9586,Belo Horizonte,403.93,27.56,55.14
2025-10-01 23:09:38,S019,Funcionários,-19.9305,-43.9381,Belo Horizonte,401.06,26.98,44.82
2025-10-01 23:09:38,S020,Belvedere,-19.932,-43.957,Belo Horizonte,389.14,17.62,46.83
2025-10-01 23:09:38,S021,Asa Sul,-15.7974,-47.8825,Brasília,415.85,19.26,32.99
2025-10-01 23:09:38,S022,Asa Norte,-15.7747,-47.885,Brasília,396.3,23.01,58.4
2025-10-01 23:09:38,S023,Lago Sul,-15.825,-47.853,Brasília,386.57,18.74,33.33
2025-10-01 23:09:38,S024,Lago Norte,-15.763,-47.807,Brasília,400.43,15.78,37.89
2025-10-01 23:09:38,S025,Boa Viagem,-8.1125,-34.9036,Recife,410.42,30.58,47.06
2025-10-01 23:09:38,S026,Graças,-8.0526,-34.8944,Recife,384.02,28.84,47.21
2025-10-01 23:09:38,S027,Espinheiro,-8.049,-34.906,Recife,414.79,33.48,55.33
2025-10-01 23:09:38,S028,Meireles,-3.7295,-38.5216,Fortaleza,384.49,18.53,59.71
2025-10-01 23:09:38,S029,Aldeota,-3.7273,-38.519,Fortaleza,386.04,34.44,57.04
2025-10-01 23:09:38,S030,Praia de Iracema,-3.717,-38.536,Fortaleza,419.87,27.63,34.97
2025-10-01 23:09:38,S031,Centro Histórico,-12.9711,-38.51,Salvador,396.01,21.59,50.17
2025-10-01 23:09:38,S032,Barra,-12.981,-38.51,Salvador,452.06,40.26,76.39
2025-10-01 23:09:38,S033,Ondina,-12.9782,-38.503,Salvador,380.25,16.82,51.3
2025-10-01 23:09:38,S034,Batel,-25.4284,-49.2733,Curitiba,403.19,15.88,35.08
2025-10-01 23:09:38,S035,Centro,-25.4287,-49.2731,Curitiba,414.08,17.69,52.79
2025-10-01 23:09:38,S036,Água Verde,-25.448,-49.282,Curitiba,390.32,23.87,41.28
2025-10-01 23:09:38,S037,Cabral,-25.419,-49.269,Curitiba,400.09,20.31,53.95
2025-10-01 23:09:38,S038,Moinhos de Vento,-30.0346,-51.216,Porto Alegre,411.86,25.24,38.59
2025-10-01 23:09:38,S039,Centro Histórico,-30.0277,-51.2287,Porto Alegre,399.03,22.9,50.43
2025-10-01 23:09:38,S040,Petrópolis,-30.0215,-51.2005,Porto Alegre,387.61,33.06,32.1
2025-10-01 23:09:38,S041,Cidade Baixa,-30.033,-51.224,Porto Alegre,413.62,32.78,45.54
2025-10-01 23:09:38,S042,Praia de Belas,-30.053,-51.212,Porto Alegre,385.61,27.02,30.29
2025-10-01 23:09:38,S043,Boa Vista,-3.0653,-60.025,Manaus,394.6,17.22,56.76
2025-10-01 23:09:38,S044,Centro,-3.119,-60.0217,Manaus,418.86,32.07,52.71
2025-10-01 23:09:38,S045,Aleixo,-3.1272,-60.005,Manaus,391.55,19.12,58.41
2025-10-01 23:09:38,S046,Centro,-1.455,-48.503,Belém,414.32,27.08,54.99
2025-10-01 23:09:38,S047,Reduto,-1.44,-48.502,Belém,399.56,23.05,46.8
2025-10-01 23:09:38,S048,Cidade Velha,-1.465,-48.492,Belém,381.78,32.0,39.74
2025-10-01 23:09:38,S049,Setor Oeste,-16.686,-49.262,Goiânia,400.6,15.01,40.48
2025-10-01 23:09:38,S050,Setor Bueno,-16.678,-49.255,Goiânia,401.9,20.71,39.7
2025-10-01 23:09:38,S051,Savassi,-19.935,-43.935,Belo Horizonte,394.15,29.88,44.19
