timestamp,station_id,station_name,latitude,longitude,city,CO2,PM2_5,O3
2025-10-01 22:54:56,S001,Centro,-22.9068,-43.1729,Rio de Janeiro,391.4,30.59,54.38
2025-10-01 22:54:56,S002,Copacabana,-22.9687,-43.1869,Rio de Janeiro,488.16,48.44,50.8
2025-10-01 22:54:56,S003,Tijuca,-22.9309,-43.2376,Rio de Janeiro,394.5,28.26,37.62
2025-10-01 22:54:56,S004,Nova Iguaçu,-22.7598,-43.4516,Rio de Janeiro,390.46,21.38,45.68
2025-10-01 22:54:56,S005,Botafogo,-22.9509,-43.1815,Rio de Janeiro,396.36,25.48,42.65
2025-10-01 22:54:56,S006,Leblon,-22.9831,-43.2227,Rio de Janeiro,528.43,57.41,57.32
2025-10-01 22:54:56,S007,Ipanema,-22.9839,-43.206,Rio de Janeiro,382.63,29.36,36.23
2025-10-01 22:54:56,S008,Barra da Tijuca,-23.0007,-43.3653,Rio de Janeiro,396.43,24.69,35.52
2025-10-01 22:54:56,S009,Lagoa,-22.9745,-43.2041,Rio de Janeiro,393.17,33.9,52.6
2025-10-01 22:54:56,S010,Jardim Paulista,-23.5711,-46.652,São Paulo,414.83,21.02,48.14
2025-10-01 22:54:56,S011,Vila Madalena,-23.5567,-46.6892,São Paulo,383.58,18.79,56.67
2025-10-01 22:54:56,S012,Pinheiros,-23.5675,-46.7016,São Paulo,402.17,15.39,41.89
2025-10-01 22:54:56,S013,Moema,-23.6008,-46.6739,São Paulo,415.31,34.83,53.45
2025-10-01 22:54:56,S014,Bela Vista,-23.5644,-46.6472,São Paulo,406.13,22.44,32.92
2025-10-01 22:54:56,S015,Itaim Bibi,-23.5845,-46.6812,São Paulo,416.43,17.2,58.11
2025-10-01 22:54:56,S016,Liberdade,-23.57,-46.632,São Paulo,517.39,66.22,85.85
2025-10-01 22:54:56,S017,Savassi,-19.9311,-43.9378,Belo Horizonte,415.26,26.17,57.6
2025-10-01 22:54:56,S018,Pampulha,-19.8513,-43.9586,Belo Horizonte,407.61,27.88,48.94
2025-10-01 22:54:56,S019,Funcionários,-19.9305,-43.9381,Belo Horizonte,414.36,30.5,36.64
2025-10-01 22:54:56,S020,Belvedere,-19.932,-43.957,Belo Horizonte,407.53,22.23,49.45
2025-10-01 22:54:56,S021,Asa Sul,-15.7974,-47.8825,Brasília,391.68,34.23,48.72
2025-10-01 22:54:56,S022,Asa Norte,-15.7747,-47.885,Brasília,411.08,20.59,38.9
2025-10-01 22:54:56,S023,Lago Sul,-15.825,-47.853,Brasília,414.4,18.37,54.82
2025-10-01 22:54:56,S024,Lago Norte,-15.763,-47.807,Brasília,413.66,17.55,57.08
2025-10-01 22:54:56,S025,Boa Viagem,-8.1125,-34.9036,Recife,404.71,25.34,51.53
2025-10-01 22:54:56,S026,Graças,-8.0526,-34.8944,Recife,413.25,31.58,59.97
2025-10-01 22:54:56,S027,Espinheiro,-8.049,-34.906,Recife,561.93,86.39,57.8
2025-10-01 22:54:56,S028,Meireles,-3.7295,-38.5216,Fortaleza,408.71,18.63,31.7
2025-10-01 22:54:56,S029,Aldeota,-3.7273,-38.519,Fortaleza,408.28,30.7,45.31
2025-10-01 22:54:56,S030,Praia de Iracema,-3.717,-38.536,Fortaleza,404.49,33.72,40.88
2025-10-01 22:54:56,S031,Centro Histórico,-12.9711,-38.51,Salvador,404.62,16.74,45.1
2025-10-01 22:54:56,S032,Barra,-12.981,-38.51,Salvador,410.25,18.6,59.6
2025-10-01 22:54:56,S033,Ondina,-12.9782,-38.503,Salvador,394.26,34.25,32.77
2025-10-01 22:54:56,S034,Batel,-25.4284,-49.2733,Curitiba,380.78,25.74,45.48
2025-10-01 22:54:56,S035,Centro,-25.4287,-49.2731,Curitiba,394.61,27.8,50.81
2025-10-01 22:54:56,S036,Água Verde,-25.448,-49.282,Curitiba,396.99,34.8,57.84
2025-10-01 22:54:56,S037,Cabral,-25.419,-49.269,Curitiba,417.94,16.36,45.59
2025-10-01 22:54:56,S038,Moinhos de Vento,-30.0346,-51.216,Porto Alegre,395.73,16.75,45.33
2025-10-01 22:54:56,S039,Centro Histórico,-30.0277,-51.2287,Porto Alegre,392.93,18.48,38.05
2025-10-01 22:54:56,S040,Petrópolis,-30.0215,-51.2005,Porto Alegre,396.19,24.25,33.91
2025-10-01 22:54:56,S041,Cidade Baixa,-30.033,-51.224,Porto Alegre,407.64,27.69,37.44
2025-10-01 22:54:56,S042,Praia de Belas,-30.053,-51.212,Porto Alegre,411.51,32.39,51.21
2025-10-01 22:54:56,S043,Boa Vista,-3.0653,-60.025,Manaus,407.78,33.44,55.44
2025-10-01 22:54:56,S044,Centro,-3.119,-60.0217,Manaus,384.87,23.7,44.89
2025-10-01 22:54:56,S045,Aleixo,-3.1272,-60.005,Manaus,394.48,33.18,53.13
2025-10-01 22:54:56,S046,Centro,-1.455,-48.503,Belém,380.68,23.18,32.41
2025-10-01 22:54:56,S047,Reduto,-1.44,-48.502,Belém,393.21,27.46,51.79
2025-10-01 22:54:56,S048,Cidade Velha,-1.465,-48.492,Belém,406.25,31.46,55.64
2025-10-01 22:54:56,S049,Setor Oeste,-16.686,-49.262,Goiânia,528.43,62.41,75.95
2025-10-01 22:54:56,S050,Setor Bueno,-16.678,-49.255,Goiânia,381.29,22.94,36.81
2025-10-01 22:54:56,S051,Savassi,-19.935,-43.935,Belo Horizonte,401.23,17.9,45.01
