timestamp,station_id,station_name,latitude,longitude,city,CO2,PM2_5,O3
2025-10-01 22:09:43,RJ001,Centro,-22.9068,-43.1729,Rio de Janeiro,390.63,32.12,38.17
2025-10-01 22:09:43,RJ002,Copacabana,-22.9687,-43.1869,Rio de Janeiro,418.13,24.45,45.28
2025-10-01 22:09:43,RJ003,Tijuca,-22.9309,-43.2376,Rio de Janeiro,403.46,23.11,53.72
2025-10-01 22:09:43,RJ004,Nova Iguaçu,-22.7598,-43.4516,Nova Iguaçu,387.92,22.4,32.13
2025-10-01 22:09:43,RJ005,Niterói,-22.8832,-43.1034,Niterói,389.94,33.37,35.82
2025-10-01 22:09:43,RJ006,Petrópolis,-22.505,-43.1786,Petrópolis,389.38,26.68,39.07
2025-10-01 22:09:43,RJ007,Campos dos Goytacazes,-21.7622,-41.3181,Campos dos Goytacazes,467.82,80.37,62.1
2025-10-01 22:09:43,RJ008,Volta Redonda,-22.5202,-44.0996,Volta Redonda,395.51,34.57,53.5
2025-10-01 22:09:43,SP001,Paulista,-23.5614,-46.6559,São Paulo,391.45,25.2,40.13
2025-10-01 22:09:43,SP002,Pinheiros,-23.561,-46.7025,São Paulo,412.92,19.64,33.71
2025-10-01 22:09:43,SP003,Ibirapuera,-23.5874,-46.6576,São Paulo,392.02,18.74,43.83
2025-10-01 22:09:43,SP004,Campinas,-22.9099,-47.0626,Campinas,401.54,24.89,35.63
2025-10-01 22:09:43,SP005,Santos,-23.954,-46.3336,Santos,406.02,25.41,31.23
2025-10-01 22:09:43,SP006,São José dos Campos,-23.2237,-45.9009,São José dos Campos,393.62,25.92,52.88
2025-10-01 22:09:43,SP007,Sorocaba,-23.5015,-47.4526,Sorocaba,400.17,31.46,48.39
2025-10-01 22:09:43,SP008,Ribeirão Preto,-21.1786,-47.8066,Ribeirão Preto,388.33,34.71,54.27
2025-10-01 22:09:43,MG001,Savassi,-19.935,-43.9336,Belo Horizonte,396.12,27.47,53.46
2025-10-01 22:09:43,MG002,Pampulha,-19.8522,-43.9766,Belo Horizonte,409.58,17.52,45.22
2025-10-01 22:09:43,MG003,Uberlândia,-18.9188,-48.2768,Uberlândia,408.34,25.06,31.5
2025-10-01 22:09:43,MG004,Juiz de Fora,-21.7622,-43.3434,Juiz de Fora,391.92,25.13,32.3
2025-10-01 22:09:43,MG005,Montes Claros,-16.7282,-43.8578,Montes Claros,410.91,30.44,46.57
2025-10-01 22:09:43,MG006,Uberaba,-19.7477,-47.931,Uberaba,563.02,87.28,72.12
2025-10-01 22:09:43,MG007,Ouro Preto,-20.3856,-43.5036,Ouro Preto,417.54,22.15,55.94
2025-10-01 22:09:43,ES001,Vitória,-20.3155,-40.3128,Vitória,401.5,29.95,43.36
2025-10-01 22:09:43,ES002,Vila Velha,-20.3417,-40.2875,Vila Velha,412.17,15.78,38.84
2025-10-01 22:09:43,ES003,Serra,-20.1211,-40.3074,Serra,410.48,17.38,32.96
2025-10-01 22:09:43,ES004,Cariacica,-20.2637,-40.4165,Cariacica,384.74,17.98,30.05
2025-10-01 22:09:43,ES005,Guarapari,-20.6771,-40.5093,Guarapari,414.21,31.28,49.81
