timestamp,station_id,station_name,latitude,longitude,city,CO2,PM2_5,O3
2025-10-01 23:11:59,S001,Centro,-22.9068,-43.1729,Rio de Janeiro,408.0,27.26,46.32
2025-10-01 23:11:59,S002,Copacabana,-22.9687,-43.1869,Rio de Janeiro,407.71,25.54,30.29
2025-10-01 23:11:59,S003,Tijuca,-22.9309,-43.2376,Rio de Janeiro,408.31,30.36,53.11
2025-10-01 23:11:59,S004,Nova Iguaçu,-22.7598,-43.4516,Rio de Janeiro,414.05,29.85,54.6
2025-10-01 23:11:59,S005,Botafogo,-22.9509,-43.1815,Rio de Janeiro,414.03,32.59,55.9
2025-10-01 23:11:59,S006,Leblon,-22.9831,-43.2227,Rio de Janeiro,402.73,26.13,47.32
2025-10-01 23:11:59,S007,Ipanema,-22.9839,-43.206,Rio de Janeiro,519.06,52.16,74.53
2025-10-01 23:11:59,S008,Barra da Tijuca,-23.0007,-43.3653,Rio de Janeiro,415.66,19.06,49.21
2025-10-01 23:11:59,S009,Lagoa,-22.9745,-43.2041,Rio de Janeiro,408.26,15.99,50.54
2025-10-01 23:11:59,S010,Jardim Paulista,-23.5711,-46.652,São Paulo,412.29,28.11,52.58
2025-10-01 23:11:59,S011,Vila Madalena,-23.5567,-46.6892,São Paulo,399.36,25.75,50.11
2025-10-01 23:11:59,S012,Pinheiros,-23.5675,-46.7016,São Paulo,414.4,15.55,30.74
2025-10-01 23:11:59,S013,Moema,-23.6008,-46.6739,São Paulo,401.29,34.74,52.53
2025-10-01 23:11:59,S014,Bela Vista,-23.5644,-46.6472,São Paulo,395.75,21.59,58.66
2025-10-01 23:11:59,S015,Itaim Bibi,-23.5845,-46.6812,São Paulo,389.51,26.89,41.57
2025-10-01 23:11:59,S016,Liberdade,-23.57,-46.632,São Paulo,392.98,25.47,30.38
2025-10-01 23:11:59,S017,Savassi,-19.9311,-43.9378,Belo Horizonte,388.65,29.35,35.29
2025-10-01 23:11:59,S018,Pampulha,-19.8513,-43.9586,Belo Horizonte,380.38,18.73,57.51
2025-10-01 23:11:59,S019,Funcionários,-19.9305,-43.9381,Belo Horizonte,399.41,16.33,45.45
2025-10-01 23:11:59,S020,Belvedere,-19.932,-43.957,Belo Horizonte,403.12,28.15,39.62
2025-10-01 23:11:59,S021,Asa Sul,-15.7974,-47.8825,Brasília,400.53,34.94,53.05
2025-10-01 23:11:59,S022,Asa Norte,-15.7747,-47.885,Brasília,409.73,31.98,55.83
2025-10-01 23:11:59,S023,Lago Sul,-15.825,-47.853,Brasília,415.38,30.83,36.37
2025-10-01 23:11:59,S024,Lago Norte,-15.763,-47.807,Brasília,405.27,21.39,58.36
2025-10-01 23:11:59,S025,Boa Viagem,-8.1125,-34.9036,Recife,396.06,29.73,31.86
2025-10-01 23:11:59,S026,Graças,-8.0526,-34.8944,Recife,393.83,15.11,59.97
2025-10-01 23:11:59,S027,Espinheiro,-8.049,-34.906,Recife,412.98,27.91,57.61
2025-10-01 23:11:59,S028,Meireles,-3.7295,-38.5216,Fortaleza,391.67,28.07,54.16
2025-10-01 23:11:59,S029,Aldeota,-3.7273,-38.519,Fortaleza,385.16,29.5,40.62
2025-10-01 23:11:59,S030,Praia de Iracema,-3.717,-38.536,Fortaleza,410.36,33.73,58.24
2025-10-01 23:11:59,S031,Centro Histórico,-12.9711,-38.51,Salvador,388.38,24.66,33.21
2025-10-01 23:11:59,S032,Barra,-12.981,-38.51,Salvador,414.66,34.59,37.57
2025-10-01 23:11:59,S033,Ondina,-12.9782,-38.503,Salvador,394.28,15.35,50.82
2025-10-01 23:11:59,S034,Batel,-25.4284,-49.2733,Curitiba,398.6,18.19,54.87
2025-10-01 23:11:59,S035,Centro,-25.4287,-49.2731,Curitiba,394.47,16.13,43.79
2025-10-01 23:11:59,S036,Água Verde,-25.448,-49.282,Curitiba,387.99,24.58,39.9
2025-10-01 23:11:59,S037,Cabral,-25.419,-49.269,Curitiba,407.75,21.79,55.42
2025-10-01 23:11:59,S038,Moinhos de Vento,-30.0346,-51.216,Porto Alegre,410.04,25.28,38.03
2025-10-01 23:11:59,S039,Centro Histórico,-30.0277,-51.2287,Porto Alegre,404.94,31.35,31.3
2025-10-01 23:11:59,S040,Petrópolis,-30.0215,-51.2005,Porto Alegre,406.19,16.58,58.59
2025-10-01 23:11:59,S041,Cidade Baixa,-30.033,-51.224,Porto Alegre,394.08,32.57,44.37
2025-10-01 23:11:59,S042,Praia de Belas,-30.053,-51.212,Porto Alegre,440.7,66.17,59.82
2025-10-01 23:11:59,S043,Boa Vista,-3.0653,-60.025,Manaus,399.58,23.54,54.87
2025-10-01 23:11:59,S044,Centro,-3.119,-60.0217,Manaus,403.04,15.91,58.15
2025-10-01 23:11:59,S045,Aleixo,-3.1272,-60.005,Manaus,416.11,15.45,46.96
2025-10-01 23:11:59,S046,Centro,-1.455,-48.503,Belém,524.43,87.48,67.31
2025-10-01 23:11:59,S047,Reduto,-1.44,-48.502,Belém,406.17,18.64,41.97
2025-10-01 23:11:59,S048,Cidade Velha,-1.465,-48.492,Belém,380.8,33.1,30.43
2025-10-01 23:11:59,S049,Setor Oeste,-16.686,-49.262,Goiânia,387.07,18.59,37.13
2025-10-01 23:11:59,S050,Setor Bueno,-16.678,-49.255,Goiânia,386.72,20.36,43.07
2025-10-01 23:11:59,S051,Savassi,-19.935,-43.935,Belo Horizonte,386.05,24.91,44.29
