timestamp,station_id,station_name,latitude,longitude,city,CO2,PM2_5,O3
2025-10-01 22:56:53,S001,Centro,-22.9068,-43.1729,Rio de Janeiro,401.01,25.39,43.09
2025-10-01 22:56:53,S002,Copacabana,-22.9687,-43.1869,Rio de Janeiro,387.69,34.24,35.11
2025-10-01 22:56:53,S003,Tijuca,-22.9309,-43.2376,Rio de Janeiro,478.16,68.38,63.57
2025-10-01 22:56:53,S004,Nova Iguaçu,-22.7598,-43.4516,Rio de Janeiro,398.94,25.28,30.97
2025-10-01 22:56:53,S005,Botafogo,-22.9509,-43.1815,Rio de Janeiro,502.68,62.37,78.3
2025-10-01 22:56:53,S006,Leblon,-22.9831,-43.2227,Rio de Janeiro,408.98,26.38,40.13
2025-10-01 22:56:53,S007,Ipanema,-22.9839,-43.206,Rio de Janeiro,388.65,34.57,51.47
2025-10-01 22:56:53,S008,Barra da Tijuca,-23.0007,-43.3653,Rio de Janeiro,401.95,24.21,41.09
2025-10-01 22:56:53,S009,Lagoa,-22.9745,-43.2041,Rio de Janeiro,410.6,19.07,30.91
2025-10-01 22:56:53,S010,Jardim Paulista,-23.5711,-46.652,São Paulo,395.9,30.58,46.79
2025-10-01 22:56:53,S011,Vila Madalena,-23.5567,-46.6892,São Paulo,395.87,17.32,44.6
2025-10-01 22:56:53,S012,Pinheiros,-23.5675,-46.7016,São Paulo,465.44,76.01,57.97
2025-10-01 22:56:53,S013,Moema,-23.6008,-46.6739,São Paulo,389.65,18.59,46.26
2025-10-01 22:56:53,S014,Bela Vista,-23.5644,-46.6472,São Paulo,407.21,22.56,48.85
2025-10-01 22:56:53,S015,Itaim Bibi,-23.5845,-46.6812,São Paulo,393.02,34.82,55.78
2025-10-01 22:56:53,S016,Liberdade,-23.57,-46.632,São Paulo,445.72,61.18,65.57
2025-10-01 22:56:53,S017,Savassi,-19.9311,-43.9378,Belo Horizonte,394.07,34.89,47.83
2025-10-01 22:56:53,S018,Pampulha,-19.8513,-43.9586,Belo Horizonte,390.97,29.86,37.26
2025-10-01 22:56:53,S019,Funcionários,-19.9305,-43.9381,Belo Horizonte,515.39,56.76,73.02
2025-10-01 22:56:53,S020,Belvedere,-19.932,-43.957,Belo Horizonte,400.91,31.76,34.38
2025-10-01 22:56:53,S021,Asa Sul,-15.7974,-47.8825,Brasília,404.91,23.15,35.93
2025-10-01 22:56:53,S022,Asa Norte,-15.7747,-47.885,Brasília,398.16,19.61,42.74
2025-10-01 22:56:53,S023,Lago Sul,-15.825,-47.853,Brasília,405.54,32.0,31.76
2025-10-01 22:56:53,S024,Lago Norte,-15.763,-47.807,Brasília,397.49,17.52,47.94
2025-10-01 22:56:53,S025,Boa Viagem,-8.1125,-34.9036,Recife,393.36,30.0,43.67
2025-10-01 22:56:53,S026,Graças,-8.0526,-34.8944,Recife,410.84,19.74,42.87
2025-10-01 22:56:53,S027,Espinheiro,-8.049,-34.906,Recife,390.42,27.61,55.04
2025-10-01 22:56:53,S028,Meireles,-3.7295,-38.5216,Fortaleza,404.07,20.68,57.02
2025-10-01 22:56:53,S029,Aldeota,-3.7273,-38.519,Fortaleza,385.9,22.49,49.35
2025-10-01 22:56:53,S030,Praia de Iracema,-3.717,-38.536,Fortaleza,391.08,27.79,40.51
2025-10-01 22:56:53,S031,Centro Histórico,-12.9711,-38.51,Salvador,415.6,25.69,34.84
2025-10-01 22:56:53,S032,Barra,-12.981,-38.51,Salvador,394.05,15.83,52.74
2025-10-01 22:56:53,S033,Ondina,-12.9782,-38.503,Salvador,482.56,54.38,73.05
2025-10-01 22:56:53,S034,Batel,-25.4284,-49.2733,Curitiba,385.15,17.7,59.74
2025-10-01 22:56:53,S035,Centro,-25.4287,-49.2731,Curitiba,388.61,18.86,54.84
2025-10-01 22:56:53,S036,Água Verde,-25.448,-49.282,Curitiba,399.29,27.78,55.2
2025-10-01 22:56:53,S037,Cabral,-25.419,-49.269,Curitiba,381.91,23.04,41.32
2025-10-01 22:56:53,S038,Moinhos de Vento,-30.0346,-51.216,Porto Alegre,406.18,22.48,53.24
2025-10-01 22:56:53,S039,Centro Histórico,-30.0277,-51.2287,Porto Alegre,396.06,28.16,56.9
2025-10-01 22:56:53,S040,Petrópolis,-30.0215,-51.2005,Porto Alegre,399.04,29.53,40.21
2025-10-01 22:56:53,S041,Cidade Baixa,-30.033,-51.224,Porto Alegre,417.55,17.91,41.84
2025-10-01 22:56:53,S042,Praia de Belas,-30.053,-51.212,Porto Alegre,417.73,21.59,31.04
2025-10-01 22:56:53,S043,Boa Vista,-3.0653,-60.025,Manaus,385.53,31.05,39.35
2025-10-01 22:56:53,S044,Centro,-3.119,-60.0217,Manaus,386.39,25.62,48.35
2025-10-01 22:56:53,S045,Aleixo,-3.1272,-60.005,Manaus,519.81,58.87,75.49
2025-10-01 22:56:53,S046,Centro,-1.455,-48.503,Belém,395.49,19.33,47.73
2025-10-01 22:56:53,S047,Reduto,-1.44,-48.502,Belém,413.08,25.93,50.87
2025-10-01 22:56:53,S048,Cidade Velha,-1.465,-48.492,Belém,452.11,73.74,78.44
2025-10-01 22:56:53,S049,Setor Oeste,-16.686,-49.262,Goiânia,416.36,17.6,46.9
2025-10-01 22:56:53,S050,Setor Bueno,-16.678,-49.255,Goiânia,386.6,22.13,40.24
2025-10-01 22:56:53,S051,Savassi,-19.935,-43.935,Belo Horizonte,419.5,33.62,33.82
