timestamp,station_id,station_name,latitude,longitude,city,CO2,PM2_5,O3
2025-10-01 23:00:36,S001,Centro,-22.9068,-43.1729,Rio de Janeiro,381.43,15.02,53.42
2025-10-01 23:00:36,S002,Copacabana,-22.9687,-43.1869,Rio de Janeiro,400.77,20.16,42.77
2025-10-01 23:00:36,S003,Tijuca,-22.9309,-43.2376,Rio de Janeiro,402.41,15.32,48.31
2025-10-01 23:00:36,S004,Nova Iguaçu,-22.7598,-43.4516,Rio de Janeiro,390.73,15.19,40.09
2025-10-01 23:00:36,S005,Botafogo,-22.9509,-43.1815,Rio de Janeiro,409.15,33.67,39.31
2025-10-01 23:00:36,S006,Leblon,-22.9831,-43.2227,Rio de Janeiro,387.65,31.7,43.87
2025-10-01 23:00:36,S007,Ipanema,-22.9839,-43.206,Rio de Janeiro,395.38,26.25,35.92
2025-10-01 23:00:36,S008,Barra da Tijuca,-23.0007,-43.3653,Rio de Janeiro,469.15,85.44,57.41
2025-10-01 23:00:36,S009,Lagoa,-22.9745,-43.2041,Rio de Janeiro,401.63,19.75,53.33
2025-10-01 23:00:36,S010,Jardim Paulista,-23.5711,-46.652,São Paulo,418.85,15.07,48.71
2025-10-01 23:00:36,S011,Vila Madalena,-23.5567,-46.6892,São Paulo,400.04,30.43,50.48
2025-10-01 23:00:36,S012,Pinheiros,-23.5675,-46.7016,São Paulo,527.09,52.42,79.38
2025-10-01 23:00:36,S013,Moema,-23.6008,-46.6739,São Paulo,393.71,32.9,54.79
2025-10-01 23:00:36,S014,Bela Vista,-23.5644,-46.6472,São Paulo,415.56,31.67,46.62
2025-10-01 23:00:36,S015,Itaim Bibi,-23.5845,-46.6812,São Paulo,394.66,20.48,52.63
2025-10-01 23:00:36,S016,Liberdade,-23.57,-46.632,São Paulo,500.69,67.92,78.05
2025-10-01 23:00:36,S017,Savassi,-19.9311,-43.9378,Belo Horizonte,419.72,24.38,32.61
2025-10-01 23:00:36,S018,Pampulha,-19.8513,-43.9586,Belo Horizonte,399.44,24.55,43.51
2025-10-01 23:00:36,S019,Funcionários,-19.9305,-43.9381,Belo Horizonte,381.6,18.13,59.83
2025-10-01 23:00:36,S020,Belvedere,-19.932,-43.957,Belo Horizonte,530.96,70.35,64.99
2025-10-01 23:00:36,S021,Asa Sul,-15.7974,-47.8825,Brasília,410.98,18.29,57.39
2025-10-01 23:00:36,S022,Asa Norte,-15.7747,-47.885,Brasília,380.86,25.84,58.08
2025-10-01 23:00:36,S023,Lago Sul,-15.825,-47.853,Brasília,385.11,26.33,38.49
2025-10-01 23:00:36,S024,Lago Norte,-15.763,-47.807,Brasília,401.28,32.98,49.58
2025-10-01 23:00:36,S025,Boa Viagem,-8.1125,-34.9036,Recife,413.53,18.44,52.35
2025-10-01 23:00:36,S026,Graças,-8.0526,-34.8944,Recife,385.22,24.57,35.03
2025-10-01 23:00:36,S027,Espinheiro,-8.049,-34.906,Recife,400.08,17.98,45.11
2025-10-01 23:00:36,S028,Meireles,-3.7295,-38.5216,Fortaleza,408.53,15.19,55.74
2025-10-01 23:00:36,S029,Aldeota,-3.7273,-38.519,Fortaleza,387.89,26.74,52.91
2025-10-01 23:00:36,S030,Praia de Iracema,-3.717,-38.536,Fortaleza,380.76,18.59,47.33
2025-10-01 23:00:36,S031,Centro Histórico,-12.9711,-38.51,Salvador,418.62,21.01,56.8
2025-10-01 23:00:36,S032,Barra,-12.981,-38.51,Salvador,412.78,32.96,56.77
2025-10-01 23:00:36,S033,Ondina,-12.9782,-38.503,Salvador,382.29,28.82,41.62
2025-10-01 23:00:36,S034,Batel,-25.4284,-49.2733,Curitiba,389.05,24.98,59.96
2025-10-01 23:00:36,S035,Centro,-25.4287,-49.2731,Curitiba,400.29,18.19,33.04
2025-10-01 23:00:36,S036,Água Verde,-25.448,-49.282,Curitiba,405.15,27.87,54.2
2025-10-01 23:00:36,S037,Cabral,-25.419,-49.269,Curitiba,382.31,18.85,55.5
2025-10-01 23:00:36,S038,Moinhos de Vento,-30.0346,-51.216,Porto Alegre,417.05,24.82,36.56
2025-10-01 23:00:36,S039,Centro Histórico,-30.0277,-51.2287,Porto Alegre,527.99,50.69,73.41
2025-10-01 23:00:36,S040,Petrópolis,-30.0215,-51.2005,Porto Alegre,392.76,28.65,50.1
2025-10-01 23:00:36,S041,Cidade Baixa,-30.033,-51.224,Porto Alegre,415.29,25.09,37.69
2025-10-01 23:00:36,S042,Praia de Belas,-30.053,-51.212,Porto Alegre,394.07,30.03,31.03
2025-10-01 23:00:36,S043,Boa Vista,-3.0653,-60.025,Manaus,406.09,15.44,50.66
2025-10-01 23:00:36,S044,Centro,-3.119,-60.0217,Manaus,408.57,23.43,42.45
2025-10-01 23:00:36,S045,Aleixo,-3.1272,-60.005,Manaus,390.88,15.43,33.5
2025-10-01 23:00:36,S046,Centro,-1.455,-48.503,Belém,383.49,27.31,43.79
2025-10-01 23:00:36,S047,Reduto,-1.44,-48.502,Belém,412.15,26.54,58.74
2025-10-01 23:00:36,S048,Cidade Velha,-1.465,-48.492,Belém,415.03,29.94,43.9
2025-10-01 23:00:36,S049,Setor Oeste,-16.686,-49.262,Goiânia,388.11,21.51,43.5
2025-10-01 23:00:36,S050,Setor Bueno,-16.678,-49.255,Goiânia,470.64,57.7,77.15
2025-10-01 23:00:36,S051,Savassi,-19.935,-43.935,Belo Horizonte,494.86,46.86,69.27
