timestamp,station_id,station_name,latitude,longitude,city,CO2,PM2_5,O3
2025-10-01 22:29:33,RJ001,Centro,-22.9068,-43.1729,Rio de Janeiro,386.4,21.22,39.87
2025-10-01 22:29:33,RJ002,Copacabana,-22.9687,-43.1869,Rio de Janeiro,486.84,80.8,47.88
2025-10-01 22:29:33,RJ003,Tijuca,-22.9309,-43.2376,Rio de Janeiro,411.6,28.67,36.45
2025-10-01 22:29:33,RJ004,Nova Iguaçu,-22.7598,-43.4516,Nova Iguaçu,398.45,29.6,43.82
2025-10-01 22:29:33,RJ005,Niterói,-22.8832,-43.1034,Niterói,406.37,29.27,33.29
2025-10-01 22:29:33,RJ006,Petrópolis,-22.505,-43.1786,Petrópolis,414.28,18.7,30.68
2025-10-01 22:29:33,RJ007,Campos dos Goytacazes,-21.7622,-41.3181,Campos dos Goytacazes,399.94,17.77,45.88
2025-10-01 22:29:33,RJ008,Volta Redonda,-22.5202,-44.0996,Volta Redonda,405.1,31.69,48.03
2025-10-01 22:29:33,SP001,Paulista,-23.5614,-46.6559,São Paulo,380.51,17.95,43.55
2025-10-01 22:29:33,SP002,Pinheiros,-23.561,-46.7025,São Paulo,385.2,32.07,52.58
2025-10-01 22:29:33,SP003,Ibirapuera,-23.5874,-46.6576,São Paulo,418.44,34.92,40.87
2025-10-01 22:29:33,SP004,Campinas,-22.9099,-47.0626,Campinas,386.98,33.89,35.05
2025-10-01 22:29:33,SP005,Santos,-23.954,-46.3336,Santos,416.58,31.76,31.86
2025-10-01 22:29:33,SP006,São José dos Campos,-23.2237,-45.9009,São José dos Campos,386.06,19.2,48.01
2025-10-01 22:29:33,SP007,Sorocaba,-23.5015,-47.4526,Sorocaba,383.07,30.58,35.22
2025-10-01 22:29:33,SP008,Ribeirão Preto,-21.1786,-47.8066,Ribeirão Preto,418.22,26.57,44.8
2025-10-01 22:29:33,MG001,Savassi,-19.935,-43.9336,Belo Horizonte,388.95,30.6,53.34
2025-10-01 22:29:33,MG002,Pampulha,-19.8522,-43.9766,Belo Horizonte,382.52,24.45,44.82
2025-10-01 22:29:33,MG003,Uberlândia,-18.9188,-48.2768,Uberlândia,408.06,19.76,31.36
2025-10-01 22:29:33,MG004,Juiz de Fora,-21.7622,-43.3434,Juiz de Fora,383.39,33.86,47.93
2025-10-01 22:29:33,MG005,Montes Claros,-16.7282,-43.8578,Montes Claros,411.63,19.94,38.44
2025-10-01 22:29:33,MG006,Uberaba,-19.7477,-47.931,Uberaba,477.25,67.72,82.64
2025-10-01 22:29:33,MG007,Ouro Preto,-20.3856,-43.5036,Ouro Preto,412.64,16.69,36.15
2025-10-01 22:29:33,ES001,Vitória,-20.3155,-40.3128,Vitória,406.01,21.72,53.61
2025-10-01 22:29:33,ES002,Vila Velha,-20.3417,-40.2875,Vila Velha,405.71,33.87,47.66
2025-10-01 22:29:33,ES003,Serra,-20.1211,-40.3074,Serra,442.06,58.31,77.8
2025-10-01 22:29:33,ES004,Cariacica,-20.2637,-40.4165,Cariacica,384.14,19.83,52.31
2025-10-01 22:29:33,ES005,Guarapari,-20.6771,-40.5093,Guarapari,416.56,21.37,56.96
