timestamp,station_id,station_name,latitude,longitude,city,CO2,PM2_5,O3
2025-10-01 23:08:03,S001,Centro,-22.9068,-43.1729,Rio de Janeiro,402.19,33.66,56.56
2025-10-01 23:08:03,S002,Copacabana,-22.9687,-43.1869,Rio de Janeiro,404.83,23.45,59.64
2025-10-01 23:08:03,S003,Tijuca,-22.9309,-43.2376,Rio de Janeiro,397.91,19.52,51.11
2025-10-01 23:08:03,S004,Nova Iguaçu,-22.7598,-43.4516,Rio de Janeiro,394.64,18.48,40.97
2025-10-01 23:08:03,S005,Botafogo,-22.9509,-43.1815,Rio de Janeiro,383.98,30.97,37.76
2025-10-01 23:08:03,S006,Leblon,-22.9831,-43.2227,Rio de Janeiro,411.79,26.79,47.44
2025-10-01 23:08:03,S007,Ipanema,-22.9839,-43.206,Rio de Janeiro,391.67,28.71,34.03
2025-10-01 23:08:03,S008,Barra da Tijuca,-23.0007,-43.3653,Rio de Janeiro,411.0,17.03,35.1
2025-10-01 23:08:03,S009,Lagoa,-22.9745,-43.2041,Rio de Janeiro,400.33,19.99,50.02
2025-10-01 23:08:03,S010,Jardim Paulista,-23.5711,-46.652,São Paulo,415.19,20.62,53.34
2025-10-01 23:08:03,S011,Vila Madalena,-23.5567,-46.6892,São Paulo,396.57,21.19,30.49
2025-10-01 23:08:03,S012,Pinheiros,-23.5675,-46.7016,São Paulo,383.55,20.13,41.73
2025-10-01 23:08:03,S013,Moema,-23.6008,-46.6739,São Paulo,415.11,33.14,35.63
2025-10-01 23:08:03,S014,Bela Vista,-23.5644,-46.6472,São Paulo,388.11,26.51,34.04
2025-10-01 23:08:03,S015,Itaim Bibi,-23.5845,-46.6812,São Paulo,416.02,26.43,52.09
2025-10-01 23:08:03,S016,Liberdade,-23.57,-46.632,São Paulo,385.81,20.15,57.27
2025-10-01 23:08:03,S017,Savassi,-19.9311,-43.9378,Belo Horizonte,390.37,25.28,52.89
2025-10-01 23:08:03,S018,Pampulha,-19.8513,-43.9586,Belo Horizonte,398.08,31.06,53.85
2025-10-01 23:08:03,S019,Funcionários,-19.9305,-43.9381,Belo Horizonte,411.33,22.81,48.07
2025-10-01 23:08:03,S020,Belvedere,-19.932,-43.957,Belo Horizonte,386.81,30.37,34.9
2025-10-01 23:08:03,S021,Asa Sul,-15.7974,-47.8825,Brasília,395.11,33.79,46.41
2025-10-01 23:08:03,S022,Asa Norte,-15.7747,-47.885,Brasília,404.44,25.64,58.05
2025-10-01 23:08:03,S023,Lago Sul,-15.825,-47.853,Brasília,389.26,26.29,55.9
2025-10-01 23:08:03,S024,Lago Norte,-15.763,-47.807,Brasília,401.11,25.15,52.84
2025-10-01 23:08:03,S025,Boa Viagem,-8.1125,-34.9036,Recife,412.22,21.14,54.65
2025-10-01 23:08:03,S026,Graças,-8.0526,-34.8944,Recife,406.41,31.79,57.45
2025-10-01 23:08:03,S027,Espinheiro,-8.049,-34.906,Recife,419.14,24.33,51.07
2025-10-01 23:08:03,S028,Meireles,-3.7295,-38.5216,Fortaleza,414.0,17.44,42.22
2025-10-01 23:08:03,S029,Aldeota,-3.7273,-38.519,Fortaleza,415.09,18.63,39.64
2025-10-01 23:08:03,S030,Praia de Iracema,-3.717,-38.536,Fortaleza,450.37,72.36,66.96
2025-10-01 23:08:03,S031,Centro Histórico,-12.9711,-38.51,Salvador,384.93,26.16,35.12
2025-10-01 23:08:03,S032,Barra,-12.981,-38.51,Salvador,410.14,30.74,56.22
2025-10-01 23:08:03,S033,Ondina,-12.9782,-38.503,Salvador,406.87,28.86,32.7
2025-10-01 23:08:03,S034,Batel,-25.4284,-49.2733,Curitiba,395.18,17.13,44.8
2025-10-01 23:08:03,S035,Centro,-25.4287,-49.2731,Curitiba,392.86,27.2,37.01
2025-10-01 23:08:03,S036,Água Verde,-25.448,-49.282,Curitiba,541.85,78.82,62.73
2025-10-01 23:08:03,S037,Cabral,-25.419,-49.269,Curitiba,384.65,28.46,57.1
2025-10-01 23:08:03,S038,Moinhos de Vento,-30.0346,-51.216,Porto Alegre,396.95,31.77,50.27
2025-10-01 23:08:03,S039,Centro Histórico,-30.0277,-51.2287,Porto Alegre,395.49,31.33,54.55
2025-10-01 23:08:03,S040,Petrópolis,-30.0215,-51.2005,Porto Alegre,396.73,28.11,37.27
2025-10-01 23:08:03,S041,Cidade Baixa,-30.033,-51.224,Porto Alegre,401.35,23.4,58.58
2025-10-01 23:08:03,S042,Praia de Belas,-30.053,-51.212,Porto Alegre,495.74,83.51,65.56
2025-10-01 23:08:03,S043,Boa Vista,-3.0653,-60.025,Manaus,553.59,80.59,63.37
2025-10-01 23:08:03,S044,Centro,-3.119,-60.0217,Manaus,387.96,29.56,50.59
2025-10-01 23:08:03,S045,Aleixo,-3.1272,-60.005,Manaus,389.31,17.51,48.93
2025-10-01 23:08:03,S046,Centro,-1.455,-48.503,Belém,401.11,28.43,54.76
2025-10-01 23:08:03,S047,Reduto,-1.44,-48.502,Belém,413.35,19.21,45.06
2025-10-01 23:08:03,S048,Cidade Velha,-1.465,-48.492,Belém,417.39,22.36,50.54
2025-10-01 23:08:03,S049,Setor Oeste,-16.686,-49.262,Goiânia,396.83,28.66,48.03
2025-10-01 23:08:03,S050,Setor Bueno,-16.678,-49.255,Goiânia,398.83,26.25,40.52
2025-10-01 23:08:03,S051,Savassi,-19.935,-43.935,Belo Horizonte,401.64,16.19,40.79
