timestamp,station_id,station_name,latitude,longitude,city,CO2,PM2_5,O3
2025-10-01 22:05:30,S001,Centro,-22.9068,-43.1729,Rio de Janeiro,416.03,27.96,56.01
2025-10-01 22:05:30,S002,Copacabana,-22.9687,-43.1869,Rio de Janeiro,404.64,33.44,55.49
2025-10-01 22:05:30,S003,Tijuca,-22.9309,-43.2376,Rio de Janeiro,402.42,23.64,49.4
2025-10-01 22:05:30,S004,Nova Iguaçu,-22.7598,-43.4516,Rio de Janeiro,394.91,27.82,50.4
2025-10-01 22:05:30,S005,Botafogo,-22.9509,-43.1815,Rio de Janeiro,524.99,46.04,57.06
2025-10-01 22:05:30,S006,Leblon,-22.9831,-43.2227,Rio de Janeiro,382.23,16.93,43.81
2025-10-01 22:05:30,S007,Ipanema,-22.9839,-43.206,Rio de Janeiro,383.59,21.58,39.28
2025-10-01 22:05:30,S008,Barra da Tijuca,-23.0007,-43.3653,Rio de Janeiro,418.94,16.1,30.64
2025-10-01 22:05:30,S009,Lagoa,-22.9745,-43.2041,Rio de Janeiro,392.87,19.1,30.03
2025-10-01 22:05:30,S010,Jardim Paulista,-23.5711,-46.652,São Paulo,412.21,29.95,37.18
2025-10-01 22:05:30,S011,Vila Madalena,-23.5567,-46.6892,São Paulo,414.01,17.42,35.73
2025-10-01 22:05:30,S012,Pinheiros,-23.5675,-46.7016,São Paulo,399.94,16.32,47.56
2025-10-01 22:05:30,S013,Moema,-23.6008,-46.6739,São Paulo,394.09,28.6,41.13
2025-10-01 22:05:30,S014,Bela Vista,-23.5644,-46.6472,São Paulo,390.1,28.11,48.01
2025-10-01 22:05:30,S015,Itaim Bibi,-23.5845,-46.6812,São Paulo,410.46,23.19,55.56
2025-10-01 22:05:30,S016,Liberdade,-23.57,-46.632,São Paulo,411.13,30.78,42.04
2025-10-01 22:05:30,S017,Savassi,-19.9311,-43.9378,Belo Horizonte,391.36,19.39,37.77
2025-10-01 22:05:30,S018,Pampulha,-19.8513,-43.9586,Belo Horizonte,392.97,16.73,37.51
2025-10-01 22:05:30,S019,Funcionários,-19.9305,-43.9381,Belo Horizonte,532.72,75.81,73.49
2025-10-01 22:05:30,S020,Belvedere,-19.932,-43.957,Belo Horizonte,406.12,30.39,45.51
2025-10-01 22:05:30,S021,Asa Sul,-15.7974,-47.8825,Brasília,404.49,19.51,36.34
2025-10-01 22:05:30,S022,Asa Norte,-15.7747,-47.885,Brasília,401.58,20.07,45.82
2025-10-01 22:05:30,S023,Lago Sul,-15.825,-47.853,Brasília,415.7,27.94,47.62
2025-10-01 22:05:30,S024,Lago Norte,-15.763,-47.807,Brasília,419.27,30.2,56.84
2025-10-01 22:05:30,S025,Boa Viagem,-8.1125,-34.9036,Recife,396.44,34.05,33.0
2025-10-01 22:05:30,S026,Graças,-8.0526,-34.8944,Recife,389.68,15.14,34.88
2025-10-01 22:05:30,S027,Espinheiro,-8.049,-34.906,Recife,391.1,27.04,38.54
2025-10-01 22:05:30,S028,Meireles,-3.7295,-38.5216,Fortaleza,401.12,15.77,44.67
2025-10-01 22:05:30,S029,Aldeota,-3.7273,-38.519,Fortaleza,384.01,29.0,49.77
2025-10-01 22:05:30,S030,Praia de Iracema,-3.717,-38.536,Fortaleza,381.71,34.85,59.42
2025-10-01 22:05:30,S031,Centro Histórico,-12.9711,-38.51,Salvador,404.06,29.02,47.59
2025-10-01 22:05:30,S032,Barra,-12.981,-38.51,Salvador,525.17,63.11,68.84
2025-10-01 22:05:30,S033,Ondina,-12.9782,-38.503,Salvador,402.41,23.79,34.19
2025-10-01 22:05:30,S034,Batel,-25.4284,-49.2733,Curitiba,398.62,15.77,45.63
2025-10-01 22:05:30,S035,Centro,-25.4287,-49.2731,Curitiba,524.0,42.27,67.9
2025-10-01 22:05:30,S036,Água Verde,-25.448,-49.282,Curitiba,418.27,20.3,46.47
2025-10-01 22:05:30,S037,Cabral,-25.419,-49.269,Curitiba,405.78,23.33,49.28
2025-10-01 22:05:30,S038,Moinhos de Vento,-30.0346,-51.216,Porto Alegre,405.52,24.79,44.72
2025-10-01 22:05:30,S039,Centro Histórico,-30.0277,-51.2287,Porto Alegre,381.19,17.95,50.67
2025-10-01 22:05:30,S040,Petrópolis,-30.0215,-51.2005,Porto Alegre,392.97,24.03,55.48
2025-10-01 22:05:30,S041,Cidade Baixa,-30.033,-51.224,Porto Alegre,550.38,69.79,75.03
2025-10-01 22:05:30,S042,Praia de Belas,-30.053,-51.212,Porto Alegre,523.45,63.68,60.02
2025-10-01 22:05:30,S043,Boa Vista,-3.0653,-60.025,Manaus,395.14,24.74,33.09
2025-10-01 22:05:30,S044,Centro,-3.119,-60.0217,Manaus,388.35,33.44,39.15
2025-10-01 22:05:30,S045,Aleixo,-3.1272,-60.005,Manaus,401.42,23.12,48.46
2025-10-01 22:05:30,S046,Centro,-1.455,-48.503,Belém,389.38,17.8,44.71
2025-10-01 22:05:30,S047,Reduto,-1.44,-48.502,Belém,398.75,33.72,39.08
2025-10-01 22:05:30,S048,Cidade Velha,-1.465,-48.492,Belém,419.28,32.61,40.34
2025-10-01 22:05:30,S049,Setor Oeste,-16.686,-49.262,Goiânia,417.63,15.57,51.44
2025-10-01 22:05:30,S050,Setor Bueno,-16.678,-49.255,Goiânia,405.75,17.65,30.55
2025-10-01 22:05:30,S051,Savassi,-19.935,-43.935,Belo Horizonte,472.53,82.17,66.21
