timestamp,station_id,station_name,latitude,longitude,city,CO2,PM2_5,O3
2025-10-01 23:07:07,S001,Centro,-22.9068,-43.1729,Rio de Janeiro,403.79,30.11,31.53
2025-10-01 23:07:07,S002,Copacabana,-22.9687,-43.1869,Rio de Janeiro,401.68,20.59,43.91
2025-10-01 23:07:07,S003,Tijuca,-22.9309,-43.2376,Rio de Janeiro,418.63,31.44,56.67
2025-10-01 23:07:07,S004,Nova Iguaçu,-22.7598,-43.4516,Rio de Janeiro,395.91,33.88,58.84
2025-10-01 23:07:07,S005,Botafogo,-22.9509,-43.1815,Rio de Janeiro,551.28,59.96,49.06
2025-10-01 23:07:07,S006,Leblon,-22.9831,-43.2227,Rio de Janeiro,488.33,80.57,64.61
2025-10-01 23:07:07,S007,Ipanema,-22.9839,-43.206,Rio de Janeiro,383.01,24.82,34.02
2025-10-01 23:07:07,S008,Barra da Tijuca,-23.0007,-43.3653,Rio de Janeiro,418.77,28.72,46.3
2025-10-01 23:07:07,S009,Lagoa,-22.9745,-43.2041,Rio de Janeiro,417.34,18.63,33.45
2025-10-01 23:07:07,S010,Jardim Paulista,-23.5711,-46.652,São Paulo,409.47,18.37,33.04
2025-10-01 23:07:07,S011,Vila Madalena,-23.5567,-46.6892,São Paulo,408.41,27.24,31.62
2025-10-01 23:07:07,S012,Pinheiros,-23.5675,-46.7016,São Paulo,386.45,33.5,32.22
2025-10-01 23:07:07,S013,Moema,-23.6008,-46.6739,São Paulo,385.51,30.05,49.0
2025-10-01 23:07:07,S014,Bela Vista,-23.5644,-46.6472,São Paulo,392.57,15.44,40.8
2025-10-01 23:07:07,S015,Itaim Bibi,-23.5845,-46.6812,São Paulo,399.17,19.0,50.74
2025-10-01 23:07:07,S016,Liberdade,-23.57,-46.632,São Paulo,382.13,20.39,35.42
2025-10-01 23:07:07,S017,Savassi,-19.9311,-43.9378,Belo Horizonte,386.19,21.64,33.07
2025-10-01 23:07:07,S018,Pampulha,-19.8513,-43.9586,Belo Horizonte,489.57,87.31,59.03
2025-10-01 23:07:07,S019,Funcionários,-19.9305,-43.9381,Belo Horizonte,416.78,16.15,31.59
2025-10-01 23:07:07,S020,Belvedere,-19.932,-43.957,Belo Horizonte,391.11,24.11,48.22
2025-10-01 23:07:07,S021,Asa Sul,-15.7974,-47.8825,Brasília,398.82,24.8,58.43
2025-10-01 23:07:07,S022,Asa Norte,-15.7747,-47.885,Brasília,417.44,29.46,52.23
2025-10-01 23:07:07,S023,Lago Sul,-15.825,-47.853,Brasília,407.33,19.08,42.89
2025-10-01 23:07:07,S024,Lago Norte,-15.763,-47.807,Brasília,487.67,47.27,74.06
2025-10-01 23:07:07,S025,Boa Viagem,-8.1125,-34.9036,Recife,406.87,34.74,56.78
2025-10-01 23:07:07,S026,Graças,-8.0526,-34.8944,Recife,384.48,21.35,36.95
2025-10-01 23:07:07,S027,Espinheiro,-8.049,-34.906,Recife,397.98,17.19,55.61
2025-10-01 23:07:07,S028,Meireles,-3.7295,-38.5216,Fortaleza,518.95,56.16,71.92
2025-10-01 23:07:07,S029,Aldeota,-3.7273,-38.519,Fortaleza,412.89,28.03,34.36
2025-10-01 23:07:07,S030,Praia de Iracema,-3.717,-38.536,Fortaleza,399.77,32.58,31.74
2025-10-01 23:07:07,S031,Centro Histórico,-12.9711,-38.51,Salvador,403.51,33.08,42.73
2025-10-01 23:07:07,S032,Barra,-12.981,-38.51,Salvador,418.1,17.49,54.72
2025-10-01 23:07:07,S033,Ondina,-12.9782,-38.503,Salvador,415.45,22.56,56.59
2025-10-01 23:07:07,S034,Batel,-25.4284,-49.2733,Curitiba,410.54,22.55,46.63
2025-10-01 23:07:07,S035,Centro,-25.4287,-49.2731,Curitiba,407.41,25.91,36.54
2025-10-01 23:07:07,S036,Água Verde,-25.448,-49.282,Curitiba,401.92,27.38,42.31
2025-10-01 23:07:07,S037,Cabral,-25.419,-49.269,Curitiba,393.77,23.37,57.38
2025-10-01 23:07:07,S038,Moinhos de Vento,-30.0346,-51.216,Porto Alegre,541.34,69.62,79.35
2025-10-01 23:07:07,S039,Centro Histórico,-30.0277,-51.2287,Porto Alegre,401.02,19.58,36.26
2025-10-01 23:07:07,S040,Petrópolis,-30.0215,-51.2005,Porto Alegre,389.02,29.15,30.27
2025-10-01 23:07:07,S041,Cidade Baixa,-30.033,-51.224,Porto Alegre,402.34,17.44,36.31
2025-10-01 23:07:07,S042,Praia de Belas,-30.053,-51.212,Porto Alegre,383.67,18.35,48.31
2025-10-01 23:07:07,S043,Boa Vista,-3.0653,-60.025,Manaus,381.62,28.06,57.03
2025-10-01 23:07:07,S044,Centro,-3.119,-60.0217,Manaus,555.05,69.1,67.59
2025-10-01 23:07:07,S045,Aleixo,-3.1272,-60.005,Manaus,410.85,30.51,55.14
2025-10-01 23:07:07,S046,Centro,-1.455,-48.503,Belém,414.62,30.94,36.02
2025-10-01 23:07:07,S047,Reduto,-1.44,-48.502,Belém,381.07,16.16,33.06
2025-10-01 23:07:07,S048,Cidade Velha,-1.465,-48.492,Belém,400.66,21.93,31.19
2025-10-01 23:07:07,S049,Setor Oeste,-16.686,-49.262,Goiânia,392.27,23.41,40.26
2025-10-01 23:07:07,S050,Setor Bueno,-16.678,-49.255,Goiânia,412.59,34.4,50.97
2025-10-01 23:07:07,S051,Savassi,-19.935,-43.935,Belo Horizonte,455.1,72.24,55.98
