timestamp,station_id,station_name,latitude,longitude,city,CO2,PM2_5,O3
2025-10-01 22:09:58,RJ001,Centro,-22.9068,-43.1729,Rio de Janeiro,411.02,29.98,58.76
2025-10-01 22:09:58,RJ002,Copacabana,-22.9687,-43.1869,Rio de Janeiro,396.82,22.78,35.33
2025-10-01 22:09:58,RJ003,Tijuca,-22.9309,-43.2376,Rio de Janeiro,394.29,23.18,46.26
2025-10-01 22:09:58,RJ004,Nova Iguaçu,-22.7598,-43.4516,Nova Iguaçu,418.82,18.16,31.55
2025-10-01 22:09:58,RJ005,Niterói,-22.8832,-43.1034,Niterói,481.73,57.44,66.82
2025-10-01 22:09:58,RJ006,Petrópolis,-22.505,-43.1786,Petrópolis,399.08,28.05,48.5
2025-10-01 22:09:58,RJ007,Campos dos Goytacazes,-21.7622,-41.3181,Campos dos Goytacazes,390.43,20.85,52.56
2025-10-01 22:09:58,RJ008,Volta Redonda,-22.5202,-44.0996,Volta Redonda,416.32,15.76,41.69
2025-10-01 22:09:58,SP001,Paulista,-23.5614,-46.6559,São Paulo,410.02,28.22,47.22
2025-10-01 22:09:58,SP002,Pinheiros,-23.561,-46.7025,São Paulo,400.8,30.15,38.55
2025-10-01 22:09:58,SP003,Ibirapuera,-23.5874,-46.6576,São Paulo,387.88,34.83,40.25
2025-10-01 22:09:58,SP004,Campinas,-22.9099,-47.0626,Campinas,415.32,19.59,52.18
2025-10-01 22:09:58,SP005,Santos,-23.954,-46.3336,Santos,402.9,32.31,53.43
2025-10-01 22:09:58,SP006,São José dos Campos,-23.2237,-45.9009,São José dos Campos,403.46,24.83,51.86
2025-10-01 22:09:58,SP007,Sorocaba,-23.5015,-47.4526,Sorocaba,396.98,22.95,32.29
2025-10-01 22:09:58,SP008,Ribeirão Preto,-21.1786,-47.8066,Ribeirão Preto,406.39,15.08,38.24
2025-10-01 22:09:58,MG001,Savassi,-19.935,-43.9336,Belo Horizonte,415.32,22.26,54.01
2025-10-01 22:09:58,MG002,Pampulha,-19.8522,-43.9766,Belo Horizonte,418.94,20.99,32.02
2025-10-01 22:09:58,MG003,Uberlândia,-18.9188,-48.2768,Uberlândia,400.77,29.9,43.26
2025-10-01 22:09:58,MG004,Juiz de Fora,-21.7622,-43.3434,Juiz de Fora,392.51,16.9,32.85
2025-10-01 22:09:58,MG005,Montes Claros,-16.7282,-43.8578,Montes Claros,386.73,31.17,32.18
2025-10-01 22:09:58,MG006,Uberaba,-19.7477,-47.931,Uberaba,530.66,55.3,76.01
2025-10-01 22:09:58,MG007,Ouro Preto,-20.3856,-43.5036,Ouro Preto,385.26,17.1,47.03
2025-10-01 22:09:58,ES001,Vitória,-20.3155,-40.3128,Vitória,394.71,18.94,50.7
2025-10-01 22:09:58,ES002,Vila Velha,-20.3417,-40.2875,Vila Velha,409.6,28.62,57.99
2025-10-01 22:09:58,ES003,Serra,-20.1211,-40.3074,Serra,419.88,28.34,53.49
2025-10-01 22:09:58,ES004,Cariacica,-20.2637,-40.4165,Cariacica,413.56,27.74,58.98
2025-10-01 22:09:58,ES005,Guarapari,-20.6771,-40.5093,Guarapari,383.91,32.08,42.2
