timestamp,station_id,station_name,latitude,longitude,city,CO2,PM2_5,O3
2025-10-01 22:52:50,S001,Centro,-22.9068,-43.1729,Rio de Janeiro,416.66,23.92,42.62
2025-10-01 22:52:50,S002,Copacabana,-22.9687,-43.1869,Rio de Janeiro,397.58,24.62,57.05
2025-10-01 22:52:50,S003,Tijuca,-22.9309,-43.2376,Rio de Janeiro,411.14,34.54,31.67
2025-10-01 22:52:50,S004,Nova Iguaçu,-22.7598,-43.4516,Rio de Janeiro,393.21,32.75,37.71
2025-10-01 22:52:50,S005,Botafogo,-22.9509,-43.1815,Rio de Janeiro,384.41,20.22,39.27
2025-10-01 22:52:50,S006,Leblon,-22.9831,-43.2227,Rio de Janeiro,391.27,20.85,57.53
2025-10-01 22:52:50,S007,Ipanema,-22.9839,-43.206,Rio de Janeiro,400.13,20.25,54.48
2025-10-01 22:52:50,S008,Barra da Tijuca,-23.0007,-43.3653,Rio de Janeiro,410.45,29.81,41.08
2025-10-01 22:52:50,S009,Lagoa,-22.9745,-43.2041,Rio de Janeiro,412.37,16.34,53.09
2025-10-01 22:52:50,S010,Jardim Paulista,-23.5711,-46.652,São Paulo,389.09,15.6,48.92
2025-10-01 22:52:50,S011,Vila Madalena,-23.5567,-46.6892,São Paulo,399.68,24.78,34.58
2025-10-01 22:52:50,S012,Pinheiros,-23.5675,-46.7016,São Paulo,414.63,33.08,55.46
2025-10-01 22:52:50,S013,Moema,-23.6008,-46.6739,São Paulo,405.63,22.03,54.41
2025-10-01 22:52:50,S014,Bela Vista,-23.5644,-46.6472,São Paulo,405.55,28.75,40.89
2025-10-01 22:52:50,S015,Itaim Bibi,-23.5845,-46.6812,São Paulo,413.36,25.09,42.18
2025-10-01 22:52:50,S016,Liberdade,-23.57,-46.632,São Paulo,406.34,19.58,36.85
2025-10-01 22:52:50,S017,Savassi,-19.9311,-43.9378,Belo Horizonte,398.47,20.64,49.98
2025-10-01 22:52:50,S018,Pampulha,-19.8513,-43.9586,Belo Horizonte,417.69,32.47,40.78
2025-10-01 22:52:50,S019,Funcionários,-19.9305,-43.9381,Belo Horizonte,383.34,31.15,57.58
2025-10-01 22:52:50,S020,Belvedere,-19.932,-43.957,Belo Horizonte,409.48,25.24,39.75
2025-10-01 22:52:50,S021,Asa Sul,-15.7974,-47.8825,Brasília,392.77,20.26,39.65
2025-10-01 22:52:50,S022,Asa Norte,-15.7747,-47.885,Brasília,402.44,26.0,57.12
2025-10-01 22:52:50,S023,Lago Sul,-15.825,-47.853,Brasília,393.21,15.62,55.55
2025-10-01 22:52:50,S024,Lago Norte,-15.763,-47.807,Brasília,391.64,19.97,59.05
2025-10-01 22:52:50,S025,Boa Viagem,-8.1125,-34.9036,Recife,401.78,30.29,32.45
2025-10-01 22:52:50,S026,Graças,-8.0526,-34.8944,Recife,393.5,34.1,53.68
2025-10-01 22:52:50,S027,Espinheiro,-8.049,-34.906,Recife,383.03,18.51,40.24
2025-10-01 22:52:50,S028,Meireles,-3.7295,-38.5216,Fortaleza,394.25,19.2,44.47
2025-10-01 22:52:50,S029,Aldeota,-3.7273,-38.519,Fortaleza,413.96,22.26,53.13
2025-10-01 22:52:50,S030,Praia de Iracema,-3.717,-38.536,Fortaleza,546.72,81.06,66.75
2025-10-01 22:52:50,S031,Centro Histórico,-12.9711,-38.51,Salvador,394.65,15.1,48.59
2025-10-01 22:52:50,S032,Barra,-12.981,-38.51,Salvador,401.59,34.28,49.16
2025-10-01 22:52:50,S033,Ondina,-12.9782,-38.503,Salvador,419.12,32.43,54.44
2025-10-01 22:52:50,S034,Batel,-25.4284,-49.2733,Curitiba,389.57,27.67,59.73
2025-10-01 22:52:50,S035,Centro,-25.4287,-49.2731,Curitiba,502.14,62.03,83.92
2025-10-01 22:52:50,S036,Água Verde,-25.448,-49.282,Curitiba,399.18,30.05,39.03
2025-10-01 22:52:50,S037,Cabral,-25.419,-49.269,Curitiba,463.91,48.75,63.23
2025-10-01 22:52:50,S038,Moinhos de Vento,-30.0346,-51.216,Porto Alegre,550.35,65.99,72.61
2025-10-01 22:52:50,S039,Centro Histórico,-30.0277,-51.2287,Porto Alegre,389.69,34.57,49.75
2025-10-01 22:52:50,S040,Petrópolis,-30.0215,-51.2005,Porto Alegre,384.53,20.47,43.06
2025-10-01 22:52:50,S041,Cidade Baixa,-30.033,-51.224,Porto Alegre,403.6,28.47,30.69
2025-10-01 22:52:50,S042,Praia de Belas,-30.053,-51.212,Porto Alegre,397.71,29.57,32.75
2025-10-01 22:52:50,S043,Boa Vista,-3.0653,-60.025,Manaus,405.8,34.45,57.74
2025-10-01 22:52:50,S044,Centro,-3.119,-60.0217,Manaus,390.45,34.72,55.84
2025-10-01 22:52:50,S045,Aleixo,-3.1272,-60.005,Manaus,411.74,17.52,44.53
2025-10-01 22:52:50,S046,Centro,-1.455,-48.503,Belém,567.83,74.14,63.64
2025-10-01 22:52:50,S047,Reduto,-1.44,-48.502,Belém,519.75,45.28,61.87
2025-10-01 22:52:50,S048,Cidade Velha,-1.465,-48.492,Belém,398.13,19.29,52.23
2025-10-01 22:52:50,S049,Setor Oeste,-16.686,-49.262,Goiânia,394.35,26.16,33.24
2025-10-01 22:52:50,S050,Setor Bueno,-16.678,-49.255,Goiânia,521.25,57.99,55.86
2025-10-01 22:52:50,S051,Savassi,-19.935,-43.935,Belo Horizonte,380.55,25.97,42.07
