timestamp,station_id,station_name,latitude,longitude,city,CO2,PM2_5,O3
2025-10-01 23:00:41,S001,Centro,-22.9068,-43.1729,Rio de Janeiro,404.91,17.96,43.52
2025-10-01 23:00:41,S002,Copacabana,-22.9687,-43.1869,Rio de Janeiro,455.91,62.31,67.2
2025-10-01 23:00:41,S003,Tijuca,-22.9309,-43.2376,Rio de Janeiro,399.25,24.73,50.4
2025-10-01 23:00:41,S004,Nova Iguaçu,-22.7598,-43.4516,Rio de Janeiro,398.01,33.89,56.65
2025-10-01 23:00:41,S005,Botafogo,-22.9509,-43.1815,Rio de Janeiro,398.72,28.13,34.88
2025-10-01 23:00:41,S006,Leblon,-22.9831,-43.2227,Rio de Janeiro,394.21,18.17,33.25
2025-10-01 23:00:41,S007,Ipanema,-22.9839,-43.206,Rio de Janeiro,412.26,29.64,52.31
2025-10-01 23:00:41,S008,Barra da Tijuca,-23.0007,-43.3653,Rio de Janeiro,395.43,25.2,48.36
2025-10-01 23:00:41,S009,Lagoa,-22.9745,-43.2041,Rio de Janeiro,382.2,19.82,45.16
2025-10-01 23:00:41,S010,Jardim Paulista,-23.5711,-46.652,São Paulo,387.93,22.24,46.33
2025-10-01 23:00:41,S011,Vila Madalena,-23.5567,-46.6892,São Paulo,501.92,65.97,65.5
2025-10-01 23:00:41,S012,Pinheiros,-23.5675,-46.7016,São Paulo,414.89,16.58,44.84
2025-10-01 23:00:41,S013,Moema,-23.6008,-46.6739,São Paulo,413.92,25.32,41.39
2025-10-01 23:00:41,S014,Bela Vista,-23.5644,-46.6472,São Paulo,393.75,26.57,38.52
2025-10-01 23:00:41,S015,Itaim Bibi,-23.5845,-46.6812,São Paulo,497.53,45.65,59.59
2025-10-01 23:00:41,S016,Liberdade,-23.57,-46.632,São Paulo,418.42,31.11,47.4
2025-10-01 23:00:41,S017,Savassi,-19.9311,-43.9378,Belo Horizonte,403.21,19.69,46.89
2025-10-01 23:00:41,S018,Pampulha,-19.8513,-43.9586,Belo Horizonte,419.19,31.9,59.12
2025-10-01 23:00:41,S019,Funcionários,-19.9305,-43.9381,Belo Horizonte,388.89,18.78,39.96
2025-10-01 23:00:41,S020,Belvedere,-19.932,-43.957,Belo Horizonte,413.35,18.3,56.64
2025-10-01 23:00:41,S021,Asa Sul,-15.7974,-47.8825,Brasília,412.9,32.26,45.8
2025-10-01 23:00:41,S022,Asa Norte,-15.7747,-47.885,Brasília,400.91,28.13,38.74
2025-10-01 23:00:41,S023,Lago Sul,-15.825,-47.853,Brasília,383.1,16.93,53.5
2025-10-01 23:00:41,S024,Lago Norte,-15.763,-47.807,Brasília,436.82,46.36,68.39
2025-10-01 23:00:41,S025,Boa Viagem,-8.1125,-34.9036,Recife,380.61,31.89,48.3
2025-10-01 23:00:41,S026,Graças,-8.0526,-34.8944,Recife,407.63,29.63,54.78
2025-10-01 23:00:41,S027,Espinheiro,-8.049,-34.906,Recife,408.67,22.78,30.89
2025-10-01 23:00:41,S028,Meireles,-3.7295,-38.5216,Fortaleza,398.21,15.21,56.0
2025-10-01 23:00:41,S029,Aldeota,-3.7273,-38.519,Fortaleza,385.17,21.88,43.71
2025-10-01 23:00:41,S030,Praia de Iracema,-3.717,-38.536,Fortaleza,407.75,20.22,40.92
2025-10-01 23:00:41,S031,Centro Histórico,-12.9711,-38.51,Salvador,412.28,20.33,33.75
2025-10-01 23:00:41,S032,Barra,-12.981,-38.51,Salvador,406.77,22.99,47.25
2025-10-01 23:00:41,S033,Ondina,-12.9782,-38.503,Salvador,412.61,33.84,59.59
2025-10-01 23:00:41,S034,Batel,-25.4284,-49.2733,Curitiba,442.92,64.84,78.91
2025-10-01 23:00:41,S035,Centro,-25.4287,-49.2731,Curitiba,387.36,27.65,44.63
2025-10-01 23:00:41,S036,Água Verde,-25.448,-49.282,Curitiba,404.89,17.18,44.25
2025-10-01 23:00:41,S037,Cabral,-25.419,-49.269,Curitiba,380.58,16.99,56.65
2025-10-01 23:00:41,S038,Moinhos de Vento,-30.0346,-51.216,Porto Alegre,406.53,18.27,45.83
2025-10-01 23:00:41,S039,Centro Histórico,-30.0277,-51.2287,Porto Alegre,396.02,22.56,57.59
2025-10-01 23:00:41,S040,Petrópolis,-30.0215,-51.2005,Porto Alegre,404.37,17.67,46.42
2025-10-01 23:00:41,S041,Cidade Baixa,-30.033,-51.224,Porto Alegre,398.32,24.99,55.87
2025-10-01 23:00:41,S042,Praia de Belas,-30.053,-51.212,Porto Alegre,406.41,17.58,49.76
2025-10-01 23:00:41,S043,Boa Vista,-3.0653,-60.025,Manaus,499.83,88.14,60.61
2025-10-01 23:00:41,S044,Centro,-3.119,-60.0217,Manaus,397.55,28.41,33.06
2025-10-01 23:00:41,S045,Aleixo,-3.1272,-60.005,Manaus,399.42,25.22,47.63
2025-10-01 23:00:41,S046,Centro,-1.455,-48.503,Belém,408.79,21.08,47.11
2025-10-01 23:00:41,S047,Reduto,-1.44,-48.502,Belém,403.27,20.42,36.56
2025-10-01 23:00:41,S048,Cidade Velha,-1.465,-48.492,Belém,404.79,21.15,58.48
2025-10-01 23:00:41,S049,Setor Oeste,-16.686,-49.262,Goiânia,398.89,32.8,45.64
2025-10-01 23:00:41,S050,Setor Bueno,-16.678,-49.255,Goiânia,396.73,31.01,35.24
2025-10-01 23:00:41,S051,Savassi,-19.935,-43.935,Belo Horizonte,419.93,18.04,54.62
