timestamp,station_id,station_name,latitude,longitude,city,CO2,PM2_5,O3
2025-10-01 23:10:03,S001,Centro,-22.9068,-43.1729,Rio de Janeiro,395.65,22.76,37.74
2025-10-01 23:10:03,S002,Copacabana,-22.9687,-43.1869,Rio de Janeiro,396.9,33.09,51.74
2025-10-01 23:10:03,S003,Tijuca,-22.9309,-43.2376,Rio de Janeiro,387.81,30.05,46.56
2025-10-01 23:10:03,S004,Nova Iguaçu,-22.7598,-43.4516,Rio de Janeiro,385.19,19.15,56.69
2025-10-01 23:10:03,S005,Botafogo,-22.9509,-43.1815,Rio de Janeiro,408.41,34.12,57.64
2025-10-01 23:10:03,S006,Leblon,-22.9831,-43.2227,Rio de Janeiro,400.98,23.5,56.75
2025-10-01 23:10:03,S007,Ipanema,-22.9839,-43.206,Rio de Janeiro,404.6,18.04,40.37
2025-10-01 23:10:03,S008,Barra da Tijuca,-23.0007,-43.3653,Rio de Janeiro,397.31,34.13,48.66
2025-10-01 23:10:03,S009,Lagoa,-22.9745,-43.2041,Rio de Janeiro,414.85,23.3,45.96
2025-10-01 23:10:03,S010,Jardim Paulista,-23.5711,-46.652,São Paulo,478.1,72.53,72.02
2025-10-01 23:10:03,S011,Vila Madalena,-23.5567,-46.6892,São Paulo,393.07,24.37,30.18
2025-10-01 23:10:03,S012,Pinheiros,-23.5675,-46.7016,São Paulo,410.42,24.47,34.89
2025-10-01 23:10:03,S013,Moema,-23.6008,-46.6739,São Paulo,386.5,27.62,44.76
2025-10-01 23:10:03,S014,Bela Vista,-23.5644,-46.6472,São Paulo,388.11,33.12,52.02
2025-10-01 23:10:03,S015,Itaim Bibi,-23.5845,-46.6812,São Paulo,407.55,33.15,54.16
2025-10-01 23:10:03,S016,Liberdade,-23.57,-46.632,São Paulo,399.73,32.53,33.72
2025-10-01 23:10:03,S017,Savassi,-19.9311,-43.9378,Belo Horizonte,411.1,24.8,50.52
2025-10-01 23:10:03,S018,Pampulha,-19.8513,-43.9586,Belo Horizonte,383.27,25.47,35.14
2025-10-01 23:10:03,S019,Funcionários,-19.9305,-43.9381,Belo Horizonte,491.15,64.3,60.44
2025-10-01 23:10:03,S020,Belvedere,-19.932,-43.957,Belo Horizonte,390.98,22.96,44.03
2025-10-01 23:10:03,S021,Asa Sul,-15.7974,-47.8825,Brasília,510.86,45.42,57.1
2025-10-01 23:10:03,S022,Asa Norte,-15.7747,-47.885,Brasília,404.24,34.24,52.14
2025-10-01 23:10:03,S023,Lago Sul,-15.825,-47.853,Brasília,533.48,77.42,70.11
2025-10-01 23:10:03,S024,Lago Norte,-15.763,-47.807,Brasília,537.77,69.22,51.36
2025-10-01 23:10:03,S025,Boa Viagem,-8.1125,-34.9036,Recife,413.48,29.42,54.63
2025-10-01 23:10:03,S026,Graças,-8.0526,-34.8944,Recife,411.3,27.33,46.06
2025-10-01 23:10:03,S027,Espinheiro,-8.049,-34.906,Recife,408.56,16.85,39.38
2025-10-01 23:10:03,S028,Meireles,-3.7295,-38.5216,Fortaleza,385.88,34.4,50.07
2025-10-01 23:10:03,S029,Aldeota,-3.7273,-38.519,Fortaleza,406.96,29.09,43.79
2025-10-01 23:10:03,S030,Praia de Iracema,-3.717,-38.536,Fortaleza,406.38,28.93,40.28
2025-10-01 23:10:03,S031,Centro Histórico,-12.9711,-38.51,Salvador,409.34,25.21,35.48
2025-10-01 23:10:03,S032,Barra,-12.981,-38.51,Salvador,383.1,34.48,48.55
2025-10-01 23:10:03,S033,Ondina,-12.9782,-38.503,Salvador,399.67,23.7,35.11
2025-10-01 23:10:03,S034,Batel,-25.4284,-49.2733,Curitiba,384.12,16.62,44.31
2025-10-01 23:10:03,S035,Centro,-25.4287,-49.2731,Curitiba,405.47,23.36,44.26
2025-10-01 23:10:03,S036,Água Verde,-25.448,-49.282,Curitiba,409.15,24.79,55.48
2025-10-01 23:10:03,S037,Cabral,-25.419,-49.269,Curitiba,515.9,64.36,78.82
2025-10-01 23:10:03,S038,Moinhos de Vento,-30.0346,-51.216,Porto Alegre,399.63,26.58,57.62
2025-10-01 23:10:03,S039,Centro Histórico,-30.0277,-51.2287,Porto Alegre,454.96,51.0,73.02
2025-10-01 23:10:03,S040,Petrópolis,-30.0215,-51.2005,Porto Alegre,405.29,34.71,55.62
2025-10-01 23:10:03,S041,Cidade Baixa,-30.033,-51.224,Porto Alegre,483.36,40.58,60.71
2025-10-01 23:10:03,S042,Praia de Belas,-30.053,-51.212,Porto Alegre,417.72,20.97,50.52
2025-10-01 23:10:03,S043,Boa Vista,-3.0653,-60.025,Manaus,396.81,29.51,53.32
2025-10-01 23:10:03,S044,Centro,-3.119,-60.0217,Manaus,419.15,16.63,51.11
2025-10-01 23:10:03,S045,Aleixo,-3.1272,-60.005,Manaus,415.59,19.15,37.39
2025-10-01 23:10:03,S046,Centro,-1.455,-48.503,Belém,390.77,21.08,48.54
2025-10-01 23:10:03,S047,Reduto,-1.44,-48.502,Belém,418.65,31.88,57.27
2025-10-01 23:10:03,S048,Cidade Velha,-1.465,-48.492,Belém,414.73,28.43,34.49
2025-10-01 23:10:03,S049,Setor Oeste,-16.686,-49.262,Goiânia,400.79,31.34,41.99
2025-10-01 23:10:03,S050,Setor Bueno,-16.678,-49.255,Goiânia,488.47,53.93,60.13
2025-10-01 23:10:03,S051,Savassi,-19.935,-43.935,Belo Horizonte,560.25,48.6,60.97
