timestamp,station_id,station_name,latitude,longitude,city,CO2,PM2_5,O3
2025-10-01 22:06:21,S001,Centro,-22.9068,-43.1729,Rio de Janeiro,558.44,65.99,58.07
2025-10-01 22:06:21,S002,Copacabana,-22.9687,-43.1869,Rio de Janeiro,381.37,17.38,57.81
2025-10-01 22:06:21,S003,Tijuca,-22.9309,-43.2376,Rio de Janeiro,389.56,18.55,35.68
2025-10-01 22:06:21,S004,Nova Iguaçu,-22.7598,-43.4516,Rio de Janeiro,409.24,34.07,58.08
2025-10-01 22:06:21,S005,Botafogo,-22.9509,-43.1815,Rio de Janeiro,395.33,30.92,48.74
2025-10-01 22:06:21,S006,Leblon,-22.9831,-43.2227,Rio de Janeiro,393.93,32.2,44.85
2025-10-01 22:06:21,S007,Ipanema,-22.9839,-43.206,Rio de Janeiro,390.5,31.71,41.78
2025-10-01 22:06:21,S008,Barra da Tijuca,-23.0007,-43.3653,Rio de Janeiro,388.79,24.6,38.6
2025-10-01 22:06:21,S009,Lagoa,-22.9745,-43.2041,Rio de Janeiro,380.17,28.92,43.57
2025-10-01 22:06:21,S010,Jardim Paulista,-23.5711,-46.652,São Paulo,397.33,16.34,51.15
2025-10-01 22:06:21,S011,Vila Madalena,-23.5567,-46.6892,São Paulo,382.02,23.59,36.48
2025-10-01 22:06:21,S012,Pinheiros,-23.5675,-46.7016,São Paulo,390.14,18.08,37.03
2025-10-01 22:06:21,S013,Moema,-23.6008,-46.6739,São Paulo,402.95,16.88,46.02
2025-10-01 22:06:21,S014,Bela Vista,-23.5644,-46.6472,São Paulo,402.17,29.52,39.2
2025-10-01 22:06:21,S015,Itaim Bibi,-23.5845,-46.6812,São Paulo,410.46,28.9,58.8
2025-10-01 22:06:21,S016,Liberdade,-23.57,-46.632,São Paulo,459.75,39.91,61.25
2025-10-01 22:06:21,S017,Savassi,-19.9311,-43.9378,Belo Horizonte,419.84,15.36,35.43
2025-10-01 22:06:21,S018,Pampulha,-19.8513,-43.9586,Belo Horizonte,408.09,20.31,43.12
2025-10-01 22:06:21,S019,Funcionários,-19.9305,-43.9381,Belo Horizonte,413.34,24.15,41.7
2025-10-01 22:06:21,S020,Belvedere,-19.932,-43.957,Belo Horizonte,410.44,19.4,30.28
2025-10-01 22:06:21,S021,Asa Sul,-15.7974,-47.8825,Brasília,411.81,25.44,53.8
2025-10-01 22:06:21,S022,Asa Norte,-15.7747,-47.885,Brasília,401.55,19.0,38.61
2025-10-01 22:06:21,S023,Lago Sul,-15.825,-47.853,Brasília,395.67,26.16,44.99
2025-10-01 22:06:21,S024,Lago Norte,-15.763,-47.807,Brasília,419.8,34.66,47.5
2025-10-01 22:06:21,S025,Boa Viagem,-8.1125,-34.9036,Recife,397.75,24.63,43.26
2025-10-01 22:06:21,S026,Graças,-8.0526,-34.8944,Recife,387.44,32.65,53.23
2025-10-01 22:06:21,S027,Espinheiro,-8.049,-34.906,Recife,402.64,25.14,57.15
2025-10-01 22:06:21,S028,Meireles,-3.7295,-38.5216,Fortaleza,418.26,20.83,52.93
2025-10-01 22:06:21,S029,Aldeota,-3.7273,-38.519,Fortaleza,381.55,30.28,39.82
2025-10-01 22:06:21,S030,Praia de Iracema,-3.717,-38.536,Fortaleza,412.5,29.38,39.28
2025-10-01 22:06:21,S031,Centro Histórico,-12.9711,-38.51,Salvador,475.21,54.37,64.42
2025-10-01 22:06:21,S032,Barra,-12.981,-38.51,Salvador,413.08,23.18,38.22
2025-10-01 22:06:21,S033,Ondina,-12.9782,-38.503,Salvador,404.14,31.48,30.81
2025-10-01 22:06:21,S034,Batel,-25.4284,-49.2733,Curitiba,388.55,24.89,52.72
2025-10-01 22:06:21,S035,Centro,-25.4287,-49.2731,Curitiba,394.29,26.12,35.27
2025-10-01 22:06:21,S036,Água Verde,-25.448,-49.282,Curitiba,537.71,46.04,58.23
2025-10-01 22:06:21,S037,Cabral,-25.419,-49.269,Curitiba,417.05,15.68,49.73
2025-10-01 22:06:21,S038,Moinhos de Vento,-30.0346,-51.216,Porto Alegre,392.97,16.5,31.22
2025-10-01 22:06:21,S039,Centro Histórico,-30.0277,-51.2287,Porto Alegre,416.25,33.27,42.09
2025-10-01 22:06:21,S040,Petrópolis,-30.0215,-51.2005,Porto Alegre,410.47,31.14,53.78
2025-10-01 22:06:21,S041,Cidade Baixa,-30.033,-51.224,Porto Alegre,399.7,23.66,35.62
2025-10-01 22:06:21,S042,Praia de Belas,-30.053,-51.212,Porto Alegre,414.77,16.67,56.41
2025-10-01 22:06:21,S043,Boa Vista,-3.0653,-60.025,Manaus,401.62,24.89,37.78
2025-10-01 22:06:21,S044,Centro,-3.119,-60.0217,Manaus,400.13,27.33,37.78
2025-10-01 22:06:21,S045,Aleixo,-3.1272,-60.005,Manaus,388.58,31.05,47.98
2025-10-01 22:06:21,S046,Centro,-1.455,-48.503,Belém,399.68,22.61,41.87
2025-10-01 22:06:21,S047,Reduto,-1.44,-48.502,Belém,408.36,32.94,51.42
2025-10-01 22:06:21,S048,Cidade Velha,-1.465,-48.492,Belém,413.57,17.18,50.26
2025-10-01 22:06:21,S049,Setor Oeste,-16.686,-49.262,Goiânia,396.32,19.88,46.14
2025-10-01 22:06:21,S050,Setor Bueno,-16.678,-49.255,Goiânia,414.11,25.57,59.71
2025-10-01 22:06:21,S051,Savassi,-19.935,-43.935,Belo Horizonte,531.28,77.67,76.53
