timestamp,station_id,station_name,latitude,longitude,city,CO2,PM2_5,O3
2025-10-01 22:57:33,S001,Centro,-22.9068,-43.1729,Rio de Janeiro,412.62,17.24,53.46
2025-10-01 22:57:33,S002,Copacabana,-22.9687,-43.1869,Rio de Janeiro,404.39,33.57,57.65
2025-10-01 22:57:33,S003,Tijuca,-22.9309,-43.2376,Rio de Janeiro,553.62,81.09,59.28
2025-10-01 22:57:33,S004,Nova Iguaçu,-22.7598,-43.4516,Rio de Janeiro,417.1,33.27,32.95
2025-10-01 22:57:33,S005,Botafogo,-22.9509,-43.1815,Rio de Janeiro,414.04,22.4,49.16
2025-10-01 22:57:33,S006,Leblon,-22.9831,-43.2227,Rio de Janeiro,386.46,18.29,33.29
2025-10-01 22:57:33,S007,Ipanema,-22.9839,-43.206,Rio de Janeiro,402.32,16.0,33.83
2025-10-01 22:57:33,S008,Barra da Tijuca,-23.0007,-43.3653,Rio de Janeiro,394.53,30.74,37.04
2025-10-01 22:57:33,S009,Lagoa,-22.9745,-43.2041,Rio de Janeiro,410.48,23.28,42.3
2025-10-01 22:57:33,S010,Jardim Paulista,-23.5711,-46.652,São Paulo,395.88,21.18,32.96
2025-10-01 22:57:33,S011,Vila Madalena,-23.5567,-46.6892,São Paulo,402.11,20.73,55.88
2025-10-01 22:57:33,S012,Pinheiros,-23.5675,-46.7016,São Paulo,388.86,26.02,30.77
2025-10-01 22:57:33,S013,Moema,-23.6008,-46.6739,São Paulo,388.2,17.87,59.53
2025-10-01 22:57:33,S014,Bela Vista,-23.5644,-46.6472,São Paulo,409.68,20.67,58.74
2025-10-01 22:57:33,S015,Itaim Bibi,-23.5845,-46.6812,São Paulo,392.84,19.31,33.38
2025-10-01 22:57:33,S016,Liberdade,-23.57,-46.632,São Paulo,397.76,26.76,53.56
2025-10-01 22:57:33,S017,Savassi,-19.9311,-43.9378,Belo Horizonte,411.18,18.3,55.48
2025-10-01 22:57:33,S018,Pampulha,-19.8513,-43.9586,Belo Horizonte,384.69,18.32,51.16
2025-10-01 22:57:33,S019,Funcionários,-19.9305,-43.9381,Belo Horizonte,391.97,16.01,53.24
2025-10-01 22:57:33,S020,Belvedere,-19.932,-43.957,Belo Horizonte,395.82,29.12,56.3
2025-10-01 22:57:33,S021,Asa Sul,-15.7974,-47.8825,Brasília,382.34,22.82,41.17
2025-10-01 22:57:33,S022,Asa Norte,-15.7747,-47.885,Brasília,399.89,18.69,43.62
2025-10-01 22:57:33,S023,Lago Sul,-15.825,-47.853,Brasília,415.26,33.07,41.8
2025-10-01 22:57:33,S024,Lago Norte,-15.763,-47.807,Brasília,416.95,26.26,43.03
2025-10-01 22:57:33,S025,Boa Viagem,-8.1125,-34.9036,Recife,387.09,28.43,50.7
2025-10-01 22:57:33,S026,Graças,-8.0526,-34.8944,Recife,381.88,19.26,39.61
2025-10-01 22:57:33,S027,Espinheiro,-8.049,-34.906,Recife,418.91,33.42,56.36
2025-10-01 22:57:33,S028,Meireles,-3.7295,-38.5216,Fortaleza,381.65,30.44,44.25
2025-10-01 22:57:33,S029,Aldeota,-3.7273,-38.519,Fortaleza,409.44,19.04,43.75
2025-10-01 22:57:33,S030,Praia de Iracema,-3.717,-38.536,Fortaleza,390.32,21.97,51.34
2025-10-01 22:57:33,S031,Centro Histórico,-12.9711,-38.51,Salvador,406.55,21.49,47.57
2025-10-01 22:57:33,S032,Barra,-12.981,-38.51,Salvador,530.25,60.51,47.3
2025-10-01 22:57:33,S033,Ondina,-12.9782,-38.503,Salvador,417.74,25.45,50.84
2025-10-01 22:57:33,S034,Batel,-25.4284,-49.2733,Curitiba,565.34,63.98,50.59
2025-10-01 22:57:33,S035,Centro,-25.4287,-49.2731,Curitiba,397.23,20.3,54.03
2025-10-01 22:57:33,S036,Água Verde,-25.448,-49.282,Curitiba,398.51,25.44,55.74
2025-10-01 22:57:33,S037,Cabral,-25.419,-49.269,Curitiba,394.25,29.71,46.83
2025-10-01 22:57:33,S038,Moinhos de Vento,-30.0346,-51.216,Porto Alegre,471.1,44.37,49.03
2025-10-01 22:57:33,S039,Centro Histórico,-30.0277,-51.2287,Porto Alegre,401.85,22.13,48.36
2025-10-01 22:57:33,S040,Petrópolis,-30.0215,-51.2005,Porto Alegre,400.81,29.79,31.07
2025-10-01 22:57:33,S041,Cidade Baixa,-30.033,-51.224,Porto Alegre,386.43,34.3,48.3
2025-10-01 22:57:33,S042,Praia de Belas,-30.053,-51.212,Porto Alegre,392.75,16.05,34.07
2025-10-01 22:57:33,S043,Boa Vista,-3.0653,-60.025,Manaus,553.44,45.48,61.79
2025-10-01 22:57:33,S044,Centro,-3.119,-60.0217,Manaus,416.61,19.71,49.04
2025-10-01 22:57:33,S045,Aleixo,-3.1272,-60.005,Manaus,401.18,23.37,32.93
2025-10-01 22:57:33,S046,Centro,-1.455,-48.503,Belém,401.15,29.89,50.05
2025-10-01 22:57:33,S047,Reduto,-1.44,-48.502,Belém,416.75,17.95,51.82
2025-10-01 22:57:33,S048,Cidade Velha,-1.465,-48.492,Belém,399.69,24.53,58.26
2025-10-01 22:57:33,S049,Setor Oeste,-16.686,-49.262,Goiânia,391.98,22.76,56.57
2025-10-01 22:57:33,S050,Setor Bueno,-16.678,-49.255,Goiânia,396.43,16.03,38.74
2025-10-01 22:57:33,S051,Savassi,-19.935,-43.935,Belo Horizonte,419.45,18.34,59.19
