timestamp,station_id,station_name,latitude,longitude,city,CO2,PM2_5,O3
2025-10-01 22:52:58,RJ001,Centro,-22.9068,-43.1729,Rio de Janeiro,411.59,20.09,41.31
2025-10-01 22:52:58,RJ002,Copacabana,-22.9687,-43.1869,Rio de Janeiro,384.01,23.22,51.17
2025-10-01 22:52:58,RJ003,Tijuca,-22.9309,-43.2376,Rio de Janeiro,393.45,15.92,59.04
2025-10-01 22:52:58,RJ004,Nova Iguaçu,-22.7598,-43.4516,Nova Iguaçu,395.54,25.87,53.04
2025-10-01 22:52:58,RJ005,Niterói,-22.8832,-43.1034,Niterói,403.05,33.2,53.55
2025-10-01 22:52:58,RJ006,Petrópolis,-22.505,-43.1786,Petrópolis,402.06,24.53,30.63
2025-10-01 22:52:58,RJ007,Campos dos Goytacazes,-21.7622,-41.3181,Campos dos Goytacazes,408.89,27.99,39.69
2025-10-01 22:52:58,RJ008,Volta Redonda,-22.5202,-44.0996,Volta Redonda,400.34,29.94,40.4
2025-10-01 22:52:58,SP001,Paulista,-23.5614,-46.6559,São Paulo,416.08,20.22,47.79
2025-10-01 22:52:58,SP002,Pinheiros,-23.561,-46.7025,São Paulo,398.03,22.79,47.5
2025-10-01 22:52:58,SP003,Ibirapuera,-23.5874,-46.6576,São Paulo,380.04,22.5,38.62
2025-10-01 22:52:58,SP004,Campinas,-22.9099,-47.0626,Campinas,409.93,21.08,41.78
2025-10-01 22:52:58,SP005,Santos,-23.954,-46.3336,Santos,392.97,18.46,56.85
2025-10-01 22:52:58,SP006,São José dos Campos,-23.2237,-45.9009,São José dos Campos,382.72,30.79,37.75
2025-10-01 22:52:58,SP007,Sorocaba,-23.5015,-47.4526,Sorocaba,406.2,32.29,37.97
2025-10-01 22:52:58,SP008,Ribeirão Preto,-21.1786,-47.8066,Ribeirão Preto,419.99,26.08,42.69
2025-10-01 22:52:58,MG001,Savassi,-19.935,-43.9336,Belo Horizonte,417.79,30.12,32.93
2025-10-01 22:52:58,MG002,Pampulha,-19.8522,-43.9766,Belo Horizonte,384.56,26.31,43.5
2025-10-01 22:52:58,MG003,Uberlândia,-18.9188,-48.2768,Uberlândia,417.38,31.72,32.47
2025-10-01 22:52:58,MG004,Juiz de Fora,-21.7622,-43.3434,Juiz de Fora,398.98,31.14,47.9
2025-10-01 22:52:58,MG005,Montes Claros,-16.7282,-43.8578,Montes Claros,517.72,55.4,55.73
2025-10-01 22:52:58,MG006,Uberaba,-19.7477,-47.931,Uberaba,500.52,68.15,61.18
2025-10-01 22:52:58,MG007,Ouro Preto,-20.3856,-43.5036,Ouro Preto,409.23,30.26,43.05
2025-10-01 22:52:58,ES001,Vitória,-20.3155,-40.3128,Vitória,417.76,34.62,57.29
2025-10-01 22:52:58,ES002,Vila Velha,-20.3417,-40.2875,Vila Velha,414.61,33.91,58.63
2025-10-01 22:52:58,ES003,Serra,-20.1211,-40.3074,Serra,456.49,58.56,63.06
2025-10-01 22:52:58,ES004,Cariacica,-20.2637,-40.4165,Cariacica,411.95,15.37,54.04
2025-10-01 22:52:58,ES005,Guarapari,-20.6771,-40.5093,Guarapari,415.22,34.12,40.99
