timestamp,station_id,station_name,latitude,longitude,city,CO2,PM2_5,O3
2025-10-01 22:08:23,S001,Centro,-22.9068,-43.1729,Rio de Janeiro,403.77,16.08,36.97
2025-10-01 22:08:23,S002,Copacabana,-22.9687,-43.1869,Rio de Janeiro,413.16,32.63,47.19
2025-10-01 22:08:23,S003,Tijuca,-22.9309,-43.2376,Rio de Janeiro,384.02,27.14,46.91
2025-10-01 22:08:23,S004,Nova Iguaçu,-22.7598,-43.4516,Rio de Janeiro,412.83,23.12,58.45
2025-10-01 22:08:23,S005,Botafogo,-22.9509,-43.1815,Rio de Janeiro,394.92,32.43,59.56
2025-10-01 22:08:23,S006,Leblon,-22.9831,-43.2227,Rio de Janeiro,407.02,26.93,35.89
2025-10-01 22:08:23,S007,Ipanema,-22.9839,-43.206,Rio de Janeiro,380.68,28.31,46.83
2025-10-01 22:08:23,S008,Barra da Tijuca,-23.0007,-43.3653,Rio de Janeiro,403.58,18.41,31.29
2025-10-01 22:08:23,S009,Lagoa,-22.9745,-43.2041,Rio de Janeiro,456.12,64.64,52.26
2025-10-01 22:08:23,S010,Jardim Paulista,-23.5711,-46.652,São Paulo,401.85,26.8,59.0
2025-10-01 22:08:23,S011,Vila Madalena,-23.5567,-46.6892,São Paulo,413.09,33.44,32.66
2025-10-01 22:08:23,S012,Pinheiros,-23.5675,-46.7016,São Paulo,507.66,71.09,56.24
2025-10-01 22:08:23,S013,Moema,-23.6008,-46.6739,São Paulo,395.84,19.63,31.18
2025-10-01 22:08:23,S014,Bela Vista,-23.5644,-46.6472,São Paulo,413.87,29.21,44.16
2025-10-01 22:08:23,S015,Itaim Bibi,-23.5845,-46.6812,São Paulo,384.91,24.25,32.14
2025-10-01 22:08:23,S016,Liberdade,-23.57,-46.632,São Paulo,403.8,27.28,55.21
2025-10-01 22:08:23,S017,Savassi,-19.9311,-43.9378,Belo Horizonte,411.04,30.37,36.16
2025-10-01 22:08:23,S018,Pampulha,-19.8513,-43.9586,Belo Horizonte,477.56,55.96,85.8
2025-10-01 22:08:23,S019,Funcionários,-19.9305,-43.9381,Belo Horizonte,394.66,15.41,48.91
2025-10-01 22:08:23,S020,Belvedere,-19.932,-43.957,Belo Horizonte,399.57,26.2,45.41
2025-10-01 22:08:23,S021,Asa Sul,-15.7974,-47.8825,Brasília,406.05,20.55,37.81
2025-10-01 22:08:23,S022,Asa Norte,-15.7747,-47.885,Brasília,401.57,19.9,48.71
2025-10-01 22:08:23,S023,Lago Sul,-15.825,-47.853,Brasília,417.04,32.88,41.05
2025-10-01 22:08:23,S024,Lago Norte,-15.763,-47.807,Brasília,395.46,22.79,38.93
2025-10-01 22:08:23,S025,Boa Viagem,-8.1125,-34.9036,Recife,416.06,34.91,32.75
2025-10-01 22:08:23,S026,Graças,-8.0526,-34.8944,Recife,394.37,33.79,43.72
2025-10-01 22:08:23,S027,Espinheiro,-8.049,-34.906,Recife,497.87,77.07,49.12
2025-10-01 22:08:23,S028,Meireles,-3.7295,-38.5216,Fortaleza,461.22,58.89,70.62
2025-10-01 22:08:23,S029,Aldeota,-3.7273,-38.519,Fortaleza,394.79,25.25,59.63
2025-10-01 22:08:23,S030,Praia de Iracema,-3.717,-38.536,Fortaleza,407.67,30.86,39.23
2025-10-01 22:08:23,S031,Centro Histórico,-12.9711,-38.51,Salvador,402.51,15.93,39.14
2025-10-01 22:08:23,S032,Barra,-12.981,-38.51,Salvador,394.39,31.92,30.77
2025-10-01 22:08:23,S033,Ondina,-12.9782,-38.503,Salvador,419.66,32.76,37.93
2025-10-01 22:08:23,S034,Batel,-25.4284,-49.2733,Curitiba,400.95,29.49,35.51
2025-10-01 22:08:23,S035,Centro,-25.4287,-49.2731,Curitiba,396.09,15.74,55.37
2025-10-01 22:08:23,S036,Água Verde,-25.448,-49.282,Curitiba,416.67,30.27,33.66
2025-10-01 22:08:23,S037,Cabral,-25.419,-49.269,Curitiba,397.67,30.34,41.73
2025-10-01 22:08:23,S038,Moinhos de Vento,-30.0346,-51.216,Porto Alegre,397.5,30.78,30.52
2025-10-01 22:08:23,S039,Centro Histórico,-30.0277,-51.2287,Porto Alegre,411.64,27.04,45.25
2025-10-01 22:08:23,S040,Petrópolis,-30.0215,-51.2005,Porto Alegre,380.91,19.8,48.69
2025-10-01 22:08:23,S041,Cidade Baixa,-30.033,-51.224,Porto Alegre,383.62,28.1,40.03
2025-10-01 22:08:23,S042,Praia de Belas,-30.053,-51.212,Porto Alegre,412.74,32.24,36.63
2025-10-01 22:08:23,S043,Boa Vista,-3.0653,-60.025,Manaus,387.14,23.41,32.9
2025-10-01 22:08:23,S044,Centro,-3.119,-60.0217,Manaus,385.35,28.14,49.9
2025-10-01 22:08:23,S045,Aleixo,-3.1272,-60.005,Manaus,393.4,19.21,31.69
2025-10-01 22:08:23,S046,Centro,-1.455,-48.503,Belém,402.06,19.49,33.99
2025-10-01 22:08:23,S047,Reduto,-1.44,-48.502,Belém,384.48,34.02,36.07
2025-10-01 22:08:23,S048,Cidade Velha,-1.465,-48.492,Belém,409.79,26.89,34.26
2025-10-01 22:08:23,S049,Setor Oeste,-16.686,-49.262,Goiânia,401.29,25.03,36.53
2025-10-01 22:08:23,S050,Setor Bueno,-16.678,-49.255,Goiânia,408.9,23.07,30.98
2025-10-01 22:08:23,S051,Savassi,-19.935,-43.935,Belo Horizonte,415.58,28.25,37.67
