timestamp,station_id,station_name,latitude,longitude,city,CO2,PM2_5,O3
2025-10-01 22:59:25,S001,Centro,-22.9068,-43.1729,Rio de Janeiro,404.28,27.47,38.85
2025-10-01 22:59:25,S002,Copacabana,-22.9687,-43.1869,Rio de Janeiro,398.19,26.33,59.89
2025-10-01 22:59:25,S003,Tijuca,-22.9309,-43.2376,Rio de Janeiro,383.08,22.14,38.76
2025-10-01 22:59:25,S004,Nova Iguaçu,-22.7598,-43.4516,Rio de Janeiro,450.77,42.21,69.95
2025-10-01 22:59:25,S005,Botafogo,-22.9509,-43.1815,Rio de Janeiro,400.99,24.35,53.52
2025-10-01 22:59:25,S006,Leblon,-22.9831,-43.2227,Rio de Janeiro,510.72,59.41,74.67
2025-10-01 22:59:25,S007,Ipanema,-22.9839,-43.206,Rio de Janeiro,389.39,16.85,50.02
2025-10-01 22:59:25,S008,Barra da Tijuca,-23.0007,-43.3653,Rio de Janeiro,415.0,25.94,51.63
2025-10-01 22:59:25,S009,Lagoa,-22.9745,-43.2041,Rio de Janeiro,403.3,26.96,38.1
2025-10-01 22:59:25,S010,Jardim Paulista,-23.5711,-46.652,São Paulo,404.85,19.71,46.41
2025-10-01 22:59:25,S011,Vila Madalena,-23.5567,-46.6892,São Paulo,411.73,33.64,38.15
2025-10-01 22:59:25,S012,Pinheiros,-23.5675,-46.7016,São Paulo,391.04,27.12,31.41
2025-10-01 22:59:25,S013,Moema,-23.6008,-46.6739,São Paulo,385.41,32.08,36.55
2025-10-01 22:59:25,S014,Bela Vista,-23.5644,-46.6472,São Paulo,388.6,18.43,52.5
2025-10-01 22:59:25,S015,Itaim Bibi,-23.5845,-46.6812,São Paulo,382.82,15.22,47.68
2025-10-01 22:59:25,S016,Liberdade,-23.57,-46.632,São Paulo,399.59,22.68,32.4
2025-10-01 22:59:25,S017,Savassi,-19.9311,-43.9378,Belo Horizonte,408.94,18.32,40.04
2025-10-01 22:59:25,S018,Pampulha,-19.8513,-43.9586,Belo Horizonte,413.56,30.79,40.13
2025-10-01 22:59:25,S019,Funcionários,-19.9305,-43.9381,Belo Horizonte,482.12,63.66,60.25
2025-10-01 22:59:25,S020,Belvedere,-19.932,-43.957,Belo Horizonte,403.19,24.93,58.33
2025-10-01 22:59:25,S021,Asa Sul,-15.7974,-47.8825,Brasília,380.39,22.62,50.87
2025-10-01 22:59:25,S022,Asa Norte,-15.7747,-47.885,Brasília,385.27,34.24,35.37
2025-10-01 22:59:25,S023,Lago Sul,-15.825,-47.853,Brasília,387.88,28.5,57.99
2025-10-01 22:59:25,S024,Lago Norte,-15.763,-47.807,Brasília,409.97,19.43,47.43
2025-10-01 22:59:25,S025,Boa Viagem,-8.1125,-34.9036,Recife,410.46,29.62,55.57
2025-10-01 22:59:25,S026,Graças,-8.0526,-34.8944,Recife,412.56,21.15,52.4
2025-10-01 22:59:25,S027,Espinheiro,-8.049,-34.906,Recife,417.44,33.1,30.55
2025-10-01 22:59:25,S028,Meireles,-3.7295,-38.5216,Fortaleza,389.57,27.27,31.14
2025-10-01 22:59:25,S029,Aldeota,-3.7273,-38.519,Fortaleza,413.05,22.2,49.83
2025-10-01 22:59:25,S030,Praia de Iracema,-3.717,-38.536,Fortaleza,392.8,18.06,32.95
2025-10-01 22:59:25,S031,Centro Histórico,-12.9711,-38.51,Salvador,395.54,30.16,39.82
2025-10-01 22:59:25,S032,Barra,-12.981,-38.51,Salvador,388.98,30.77,36.69
2025-10-01 22:59:25,S033,Ondina,-12.9782,-38.503,Salvador,415.93,25.18,31.06
2025-10-01 22:59:25,S034,Batel,-25.4284,-49.2733,Curitiba,387.49,15.44,45.91
2025-10-01 22:59:25,S035,Centro,-25.4287,-49.2731,Curitiba,409.87,15.47,52.13
2025-10-01 22:59:25,S036,Água Verde,-25.448,-49.282,Curitiba,397.73,31.75,46.51
2025-10-01 22:59:25,S037,Cabral,-25.419,-49.269,Curitiba,400.55,32.83,35.18
2025-10-01 22:59:25,S038,Moinhos de Vento,-30.0346,-51.216,Porto Alegre,399.29,32.27,54.94
2025-10-01 22:59:25,S039,Centro Histórico,-30.0277,-51.2287,Porto Alegre,401.06,34.31,53.48
2025-10-01 22:59:25,S040,Petrópolis,-30.0215,-51.2005,Porto Alegre,398.07,20.6,57.57
2025-10-01 22:59:25,S041,Cidade Baixa,-30.033,-51.224,Porto Alegre,385.22,25.82,43.24
2025-10-01 22:59:25,S042,Praia de Belas,-30.053,-51.212,Porto Alegre,390.92,18.37,50.17
2025-10-01 22:59:25,S043,Boa Vista,-3.0653,-60.025,Manaus,418.77,34.78,31.39
2025-10-01 22:59:25,S044,Centro,-3.119,-60.0217,Manaus,405.71,29.24,32.8
2025-10-01 22:59:25,S045,Aleixo,-3.1272,-60.005,Manaus,393.96,16.17,38.69
2025-10-01 22:59:25,S046,Centro,-1.455,-48.503,Belém,467.16,50.73,61.57
2025-10-01 22:59:25,S047,Reduto,-1.44,-48.502,Belém,470.6,43.08,50.72
2025-10-01 22:59:25,S048,Cidade Velha,-1.465,-48.492,Belém,417.81,21.72,51.99
2025-10-01 22:59:25,S049,Setor Oeste,-16.686,-49.262,Goiânia,396.27,34.65,30.78
2025-10-01 22:59:25,S050,Setor Bueno,-16.678,-49.255,Goiânia,419.84,28.37,57.78
2025-10-01 22:59:25,S051,Savassi,-19.935,-43.935,Belo Horizonte,392.01,26.69,42.65
