timestamp,station_id,station_name,latitude,longitude,city,CO2,PM2_5,O3
2025-10-01 23:11:39,S001,Centro,-22.9068,-43.1729,Rio de Janeiro,407.23,29.09,56.29
2025-10-01 23:11:39,S002,Copacabana,-22.9687,-43.1869,Rio de Janeiro,418.7,34.97,52.91
2025-10-01 23:11:39,S003,Tijuca,-22.9309,-43.2376,Rio de Janeiro,394.73,18.89,57.56
2025-10-01 23:11:39,S004,Nova Iguaçu,-22.7598,-43.4516,Rio de Janeiro,416.37,21.46,37.66
2025-10-01 23:11:39,S005,Botafogo,-22.9509,-43.1815,Rio de Janeiro,403.99,24.67,56.86
2025-10-01 23:11:39,S006,Leblon,-22.9831,-43.2227,Rio de Janeiro,394.07,26.59,34.08
2025-10-01 23:11:39,S007,Ipanema,-22.9839,-43.206,Rio de Janeiro,413.07,27.45,34.88
2025-10-01 23:11:39,S008,Barra da Tijuca,-23.0007,-43.3653,Rio de Janeiro,416.59,24.47,54.24
2025-10-01 23:11:39,S009,Lagoa,-22.9745,-43.2041,Rio de Janeiro,392.75,15.69,46.6
2025-10-01 23:11:39,S010,Jardim Paulista,-23.5711,-46.652,São Paulo,404.69,31.78,57.22
2025-10-01 23:11:39,S011,Vila Madalena,-23.5567,-46.6892,São Paulo,395.36,28.91,54.03
2025-10-01 23:11:39,S012,Pinheiros,-23.5675,-46.7016,São Paulo,407.68,16.69,46.05
2025-10-01 23:11:39,S013,Moema,-23.6008,-46.6739,São Paulo,388.18,22.98,40.97
2025-10-01 23:11:39,S014,Bela Vista,-23.5644,-46.6472,São Paulo,386.43,22.91,54.82
2025-10-01 23:11:39,S015,Itaim Bibi,-23.5845,-46.6812,São Paulo,385.46,30.22,34.99
2025-10-01 23:11:39,S016,Liberdade,-23.57,-46.632,São Paulo,418.18,19.8,49.75
2025-10-01 23:11:39,S017,Savassi,-19.9311,-43.9378,Belo Horizonte,385.28,23.8,45.0
2025-10-01 23:11:39,S018,Pampulha,-19.8513,-43.9586,Belo Horizonte,518.95,63.74,65.66
2025-10-01 23:11:39,S019,Funcionários,-19.9305,-43.9381,Belo Horizonte,406.39,21.22,49.99
2025-10-01 23:11:39,S020,Belvedere,-19.932,-43.957,Belo Horizonte,510.66,86.68,58.4
2025-10-01 23:11:39,S021,Asa Sul,-15.7974,-47.8825,Brasília,391.36,19.9,43.8
2025-10-01 23:11:39,S022,Asa Norte,-15.7747,-47.885,Brasília,391.82,19.5,58.08
2025-10-01 23:11:39,S023,Lago Sul,-15.825,-47.853,Brasília,413.87,20.27,51.1
2025-10-01 23:11:39,S024,Lago Norte,-15.763,-47.807,Brasília,385.56,33.0,40.39
2025-10-01 23:11:39,S025,Boa Viagem,-8.1125,-34.9036,Recife,395.95,34.85,39.37
2025-10-01 23:11:39,S026,Graças,-8.0526,-34.8944,Recife,396.1,34.1,43.84
2025-10-01 23:11:39,S027,Espinheiro,-8.049,-34.906,Recife,406.05,31.88,54.29
2025-10-01 23:11:39,S028,Meireles,-3.7295,-38.5216,Fortaleza,406.24,20.52,41.32
2025-10-01 23:11:39,S029,Aldeota,-3.7273,-38.519,Fortaleza,465.87,79.72,62.25
2025-10-01 23:11:39,S030,Praia de Iracema,-3.717,-38.536,Fortaleza,396.85,20.6,37.1
2025-10-01 23:11:39,S031,Centro Histórico,-12.9711,-38.51,Salvador,403.93,26.96,34.87
2025-10-01 23:11:39,S032,Barra,-12.981,-38.51,Salvador,401.9,17.74,30.63
2025-10-01 23:11:39,S033,Ondina,-12.9782,-38.503,Salvador,416.98,23.23,40.57
2025-10-01 23:11:39,S034,Batel,-25.4284,-49.2733,Curitiba,415.35,33.01,45.14
2025-10-01 23:11:39,S035,Centro,-25.4287,-49.2731,Curitiba,412.28,27.71,35.92
2025-10-01 23:11:39,S036,Água Verde,-25.448,-49.282,Curitiba,410.06,24.3,39.41
2025-10-01 23:11:39,S037,Cabral,-25.419,-49.269,Curitiba,400.88,19.3,59.85
2025-10-01 23:11:39,S038,Moinhos de Vento,-30.0346,-51.216,Porto Alegre,405.86,21.71,45.88
2025-10-01 23:11:39,S039,Centro Histórico,-30.0277,-51.2287,Porto Alegre,400.26,23.15,38.17
2025-10-01 23:11:39,S040,Petrópolis,-30.0215,-51.2005,Porto Alegre,408.68,27.04,30.56
2025-10-01 23:11:39,S041,Cidade Baixa,-30.033,-51.224,Porto Alegre,499.27,82.27,75.42
2025-10-01 23:11:39,S042,Praia de Belas,-30.053,-51.212,Porto Alegre,403.71,19.9,47.11
2025-10-01 23:11:39,S043,Boa Vista,-3.0653,-60.025,Manaus,495.11,70.81,46.83
2025-10-01 23:11:39,S044,Centro,-3.119,-60.0217,Manaus,382.58,24.5,39.05
2025-10-01 23:11:39,S045,Aleixo,-3.1272,-60.005,Manaus,396.84,25.67,49.65
2025-10-01 23:11:39,S046,Centro,-1.455,-48.503,Belém,406.32,33.51,45.08
2025-10-01 23:11:39,S047,Reduto,-1.44,-48.502,Belém,400.84,18.91,59.35
2025-10-01 23:11:39,S048,Cidade Velha,-1.465,-48.492,Belém,409.59,27.09,34.11
2025-10-01 23:11:39,S049,Setor Oeste,-16.686,-49.262,Goiânia,406.89,18.59,38.23
2025-10-01 23:11:39,S050,Setor Bueno,-16.678,-49.255,Goiânia,397.39,19.07,54.32
2025-10-01 23:11:39,S051,Savassi,-19.935,-43.935,Belo Horizonte,413.64,29.31,35.88
