timestamp,station_id,station_name,latitude,longitude,city,CO2,PM2_5,O3
2025-10-01 23:04:20,S001,Centro,-22.9068,-43.1729,Rio de Janeiro,411.26,30.61,38.88
2025-10-01 23:04:20,S002,Copacabana,-22.9687,-43.1869,Rio de Janeiro,401.17,25.11,50.75
2025-10-01 23:04:20,S003,Tijuca,-22.9309,-43.2376,Rio de Janeiro,380.3,15.4,45.77
2025-10-01 23:04:20,S004,Nova Iguaçu,-22.7598,-43.4516,Rio de Janeiro,533.08,83.93,68.26
2025-10-01 23:04:20,S005,Botafogo,-22.9509,-43.1815,Rio de Janeiro,397.77,24.05,51.63
2025-10-01 23:04:20,S006,Leblon,-22.9831,-43.2227,Rio de Janeiro,394.62,34.51,46.59
2025-10-01 23:04:20,S007,Ipanema,-22.9839,-43.206,Rio de Janeiro,386.44,31.04,54.63
2025-10-01 23:04:20,S008,Barra da Tijuca,-23.0007,-43.3653,Rio de Janeiro,490.15,63.82,64.58
2025-10-01 23:04:20,S009,Lagoa,-22.9745,-43.2041,Rio de Janeiro,528.55,64.64,55.42
2025-10-01 23:04:20,S010,Jardim Paulista,-23.5711,-46.652,São Paulo,383.68,30.11,46.48
2025-10-01 23:04:20,S011,Vila Madalena,-23.5567,-46.6892,São Paulo,392.85,15.1,39.84
2025-10-01 23:04:20,S012,Pinheiros,-23.5675,-46.7016,São Paulo,398.33,16.9,39.54
2025-10-01 23:04:20,S013,Moema,-23.6008,-46.6739,São Paulo,418.71,23.94,41.67
2025-10-01 23:04:20,S014,Bela Vista,-23.5644,-46.6472,São Paulo,402.07,17.77,48.1
2025-10-01 23:04:20,S015,Itaim Bibi,-23.5845,-46.6812,São Paulo,381.28,28.7,53.08
2025-10-01 23:04:20,S016,Liberdade,-23.57,-46.632,São Paulo,403.82,28.51,54.89
2025-10-01 23:04:20,S017,Savassi,-19.9311,-43.9378,Belo Horizonte,410.24,33.9,59.86
2025-10-01 23:04:20,S018,Pampulha,-19.8513,-43.9586,Belo Horizonte,518.85,83.38,59.47
2025-10-01 23:04:20,S019,Funcionários,-19.9305,-43.9381,Belo Horizonte,408.31,31.23,57.25
2025-10-01 23:04:20,S020,Belvedere,-19.932,-43.957,Belo Horizonte,507.29,71.53,65.52
2025-10-01 23:04:20,S021,Asa Sul,-15.7974,-47.8825,Brasília,391.14,18.16,59.52
2025-10-01 23:04:20,S022,Asa Norte,-15.7747,-47.885,Brasília,396.92,22.33,57.59
2025-10-01 23:04:20,S023,Lago Sul,-15.825,-47.853,Brasília,402.07,30.59,53.62
2025-10-01 23:04:20,S024,Lago Norte,-15.763,-47.807,Brasília,483.66,86.39,62.31
2025-10-01 23:04:20,S025,Boa Viagem,-8.1125,-34.9036,Recife,413.79,19.63,55.78
2025-10-01 23:04:20,S026,Graças,-8.0526,-34.8944,Recife,399.47,19.07,42.58
2025-10-01 23:04:20,S027,Espinheiro,-8.049,-34.906,Recife,418.78,30.53,33.51
2025-10-01 23:04:20,S028,Meireles,-3.7295,-38.5216,Fortaleza,409.08,22.41,38.67
2025-10-01 23:04:20,S029,Aldeota,-3.7273,-38.519,Fortaleza,408.42,33.65,35.94
2025-10-01 23:04:20,S030,Praia de Iracema,-3.717,-38.536,Fortaleza,389.69,24.37,43.32
2025-10-01 23:04:20,S031,Centro Histórico,-12.9711,-38.51,Salvador,417.86,23.84,43.08
2025-10-01 23:04:20,S032,Barra,-12.981,-38.51,Salvador,402.99,28.64,53.64
2025-10-01 23:04:20,S033,Ondina,-12.9782,-38.503,Salvador,394.38,30.73,46.13
2025-10-01 23:04:20,S034,Batel,-25.4284,-49.2733,Curitiba,411.15,29.49,40.02
2025-10-01 23:04:20,S035,Centro,-25.4287,-49.2731,Curitiba,413.02,27.86,49.68
2025-10-01 23:04:20,S036,Água Verde,-25.448,-49.282,Curitiba,398.58,29.88,46.91
2025-10-01 23:04:20,S037,Cabral,-25.419,-49.269,Curitiba,386.81,24.18,34.69
2025-10-01 23:04:20,S038,Moinhos de Vento,-30.0346,-51.216,Porto Alegre,390.91,15.86,51.52
2025-10-01 23:04:20,S039,Centro Histórico,-30.0277,-51.2287,Porto Alegre,412.86,32.99,56.24
2025-10-01 23:04:20,S040,Petrópolis,-30.0215,-51.2005,Porto Alegre,386.28,23.36,56.36
2025-10-01 23:04:20,S041,Cidade Baixa,-30.033,-51.224,Porto Alegre,406.65,21.47,50.21
2025-10-01 23:04:20,S042,Praia de Belas,-30.053,-51.212,Porto Alegre,413.23,19.55,38.77
2025-10-01 23:04:20,S043,Boa Vista,-3.0653,-60.025,Manaus,419.45,26.71,47.67
2025-10-01 23:04:20,S044,Centro,-3.119,-60.0217,Manaus,404.67,21.47,57.25
2025-10-01 23:04:20,S045,Aleixo,-3.1272,-60.005,Manaus,404.49,23.17,36.86
2025-10-01 23:04:20,S046,Centro,-1.455,-48.503,Belém,418.26,27.11,31.22
2025-10-01 23:04:20,S047,Reduto,-1.44,-48.502,Belém,403.27,17.29,53.52
2025-10-01 23:04:20,S048,Cidade Velha,-1.465,-48.492,Belém,412.87,21.38,55.77
2025-10-01 23:04:20,S049,Setor Oeste,-16.686,-49.262,Goiânia,405.14,18.52,38.21
2025-10-01 23:04:20,S050,Setor Bueno,-16.678,-49.255,Goiânia,404.97,26.61,42.89
2025-10-01 23:04:20,S051,Savassi,-19.935,-43.935,Belo Horizonte,403.57,23.23,46.88
