timestamp,station_id,station_name,latitude,longitude,city,CO2,PM2_5,O3
2025-10-01 22:11:07,S001,Centro,-22.9068,-43.1729,Rio de Janeiro,412.61,16.8,39.37
2025-10-01 22:11:07,S002,Copacabana,-22.9687,-43.1869,Rio de Janeiro,386.22,17.17,50.39
2025-10-01 22:11:07,S003,Tijuca,-22.9309,-43.2376,Rio de Janeiro,403.67,33.38,40.75
2025-10-01 22:11:07,S004,Nova Iguaçu,-22.7598,-43.4516,Rio de Janeiro,399.68,34.76,44.46
2025-10-01 22:11:07,S005,Botafogo,-22.9509,-43.1815,Rio de Janeiro,387.28,18.73,51.91
2025-10-01 22:11:07,S006,Leblon,-22.9831,-43.2227,Rio de Janeiro,405.17,19.56,35.34
2025-10-01 22:11:07,S007,Ipanema,-22.9839,-43.206,Rio de Janeiro,416.72,20.76,35.5
2025-10-01 22:11:07,S008,Barra da Tijuca,-23.0007,-43.3653,Rio de Janeiro,385.19,31.75,33.75
2025-10-01 22:11:07,S009,Lagoa,-22.9745,-43.2041,Rio de Janeiro,396.05,19.77,37.6
2025-10-01 22:11:07,S010,Jardim Paulista,-23.5711,-46.652,São Paulo,411.81,15.49,57.6
2025-10-01 22:11:07,S011,Vila Madalena,-23.5567,-46.6892,São Paulo,381.44,15.19,47.66
2025-10-01 22:11:07,S012,Pinheiros,-23.5675,-46.7016,São Paulo,383.87,21.91,52.29
2025-10-01 22:11:07,S013,Moema,-23.6008,-46.6739,São Paulo,417.91,28.37,58.93
2025-10-01 22:11:07,S014,Bela Vista,-23.5644,-46.6472,São Paulo,397.15,18.94,42.87
2025-10-01 22:11:07,S015,Itaim Bibi,-23.5845,-46.6812,São Paulo,389.27,21.69,31.25
2025-10-01 22:11:07,S016,Liberdade,-23.57,-46.632,São Paulo,472.19,68.45,56.8
2025-10-01 22:11:07,S017,Savassi,-19.9311,-43.9378,Belo Horizonte,382.18,27.18,44.73
2025-10-01 22:11:07,S018,Pampulha,-19.8513,-43.9586,Belo Horizonte,392.18,29.67,58.6
2025-10-01 22:11:07,S019,Funcionários,-19.9305,-43.9381,Belo Horizonte,409.17,21.33,30.83
2025-10-01 22:11:07,S020,Belvedere,-19.932,-43.957,Belo Horizonte,433.52,70.64,58.8
2025-10-01 22:11:07,S021,Asa Sul,-15.7974,-47.8825,Brasília,382.07,19.17,36.04
2025-10-01 22:11:07,S022,Asa Norte,-15.7747,-47.885,Brasília,384.04,18.24,51.87
2025-10-01 22:11:07,S023,Lago Sul,-15.825,-47.853,Brasília,526.68,90.36,64.6
2025-10-01 22:11:07,S024,Lago Norte,-15.763,-47.807,Brasília,406.04,30.97,30.66
2025-10-01 22:11:07,S025,Boa Viagem,-8.1125,-34.9036,Recife,397.0,21.9,41.22
2025-10-01 22:11:07,S026,Graças,-8.0526,-34.8944,Recife,387.9,25.16,43.05
2025-10-01 22:11:07,S027,Espinheiro,-8.049,-34.906,Recife,412.24,15.72,52.06
2025-10-01 22:11:07,S028,Meireles,-3.7295,-38.5216,Fortaleza,400.17,28.57,39.89
2025-10-01 22:11:07,S029,Aldeota,-3.7273,-38.519,Fortaleza,407.74,16.5,34.81
2025-10-01 22:11:07,S030,Praia de Iracema,-3.717,-38.536,Fortaleza,408.08,25.26,43.37
2025-10-01 22:11:07,S031,Centro Histórico,-12.9711,-38.51,Salvador,399.99,19.82,45.33
2025-10-01 22:11:07,S032,Barra,-12.981,-38.51,Salvador,415.66,31.62,53.17
2025-10-01 22:11:07,S033,Ondina,-12.9782,-38.503,Salvador,407.84,33.29,57.34
2025-10-01 22:11:07,S034,Batel,-25.4284,-49.2733,Curitiba,387.2,16.42,57.7
2025-10-01 22:11:07,S035,Centro,-25.4287,-49.2731,Curitiba,388.62,28.96,38.58
2025-10-01 22:11:07,S036,Água Verde,-25.448,-49.282,Curitiba,393.08,28.03,44.64
2025-10-01 22:11:07,S037,Cabral,-25.419,-49.269,Curitiba,383.39,16.98,53.73
2025-10-01 22:11:07,S038,Moinhos de Vento,-30.0346,-51.216,Porto Alegre,419.0,29.08,33.68
2025-10-01 22:11:07,S039,Centro Histórico,-30.0277,-51.2287,Porto Alegre,389.01,28.45,49.57
2025-10-01 22:11:07,S040,Petrópolis,-30.0215,-51.2005,Porto Alegre,389.45,16.79,54.74
2025-10-01 22:11:07,S041,Cidade Baixa,-30.033,-51.224,Porto Alegre,417.75,28.18,33.07
2025-10-01 22:11:07,S042,Praia de Belas,-30.053,-51.212,Porto Alegre,394.09,24.81,36.94
2025-10-01 22:11:07,S043,Boa Vista,-3.0653,-60.025,Manaus,522.86,78.67,55.72
2025-10-01 22:11:07,S044,Centro,-3.119,-60.0217,Manaus,390.07,22.55,52.32
2025-10-01 22:11:07,S045,Aleixo,-3.1272,-60.005,Manaus,410.06,20.5,36.37
2025-10-01 22:11:07,S046,Centro,-1.455,-48.503,Belém,561.01,76.42,58.73
2025-10-01 22:11:07,S047,Reduto,-1.44,-48.502,Belém,497.76,73.56,65.42
2025-10-01 22:11:07,S048,Cidade Velha,-1.465,-48.492,Belém,383.55,33.16,46.03
2025-10-01 22:11:07,S049,Setor Oeste,-16.686,-49.262,Goiânia,418.73,18.59,50.13
2025-10-01 22:11:07,S050,Setor Bueno,-16.678,-49.255,Goiânia,413.38,15.99,52.7
2025-10-01 22:11:07,S051,Savassi,-19.935,-43.935,Belo Horizonte,412.99,19.67,44.38
