timestamp,station_id,station_name,latitude,longitude,city,CO2,PM2_5,O3
2025-10-01 23:06:06,S001,Centro,-22.9068,-43.1729,Rio de Janeiro,469.57,41.45,86.11
2025-10-01 23:06:06,S002,Copacabana,-22.9687,-43.1869,Rio de Janeiro,393.58,28.37,55.17
2025-10-01 23:06:06,S003,Tijuca,-22.9309,-43.2376,Rio de Janeiro,392.01,29.94,31.96
2025-10-01 23:06:06,S004,Nova Iguaçu,-22.7598,-43.4516,Rio de Janeiro,389.95,22.21,43.61
2025-10-01 23:06:06,S005,Botafogo,-22.9509,-43.1815,Rio de Janeiro,414.81,31.81,39.81
2025-10-01 23:06:06,S006,Leblon,-22.9831,-43.2227,Rio de Janeiro,384.93,26.63,57.4
2025-10-01 23:06:06,S007,Ipanema,-22.9839,-43.206,Rio de Janeiro,393.79,28.57,30.5
2025-10-01 23:06:06,S008,Barra da Tijuca,-23.0007,-43.3653,Rio de Janeiro,415.39,20.67,40.14
2025-10-01 23:06:06,S009,Lagoa,-22.9745,-43.2041,Rio de Janeiro,402.07,33.97,30.1
2025-10-01 23:06:06,S010,Jardim Paulista,-23.5711,-46.652,São Paulo,399.72,29.43,44.14
2025-10-01 23:06:06,S011,Vila Madalena,-23.5567,-46.6892,São Paulo,405.04,23.16,47.81
2025-10-01 23:06:06,S012,Pinheiros,-23.5675,-46.7016,São Paulo,393.09,32.84,41.87
2025-10-01 23:06:06,S013,Moema,-23.6008,-46.6739,São Paulo,414.14,25.93,46.73
2025-10-01 23:06:06,S014,Bela Vista,-23.5644,-46.6472,São Paulo,404.36,33.73,34.45
2025-10-01 23:06:06,S015,Itaim Bibi,-23.5845,-46.6812,São Paulo,419.64,20.57,43.38
2025-10-01 23:06:06,S016,Liberdade,-23.57,-46.632,São Paulo,382.6,15.72,33.9
2025-10-01 23:06:06,S017,Savassi,-19.9311,-43.9378,Belo Horizonte,383.06,15.02,40.75
2025-10-01 23:06:06,S018,Pampulha,-19.8513,-43.9586,Belo Horizonte,392.65,19.42,37.42
2025-10-01 23:06:06,S019,Funcionários,-19.9305,-43.9381,Belo Horizonte,398.92,27.82,43.94
2025-10-01 23:06:06,S020,Belvedere,-19.932,-43.957,Belo Horizonte,395.07,28.27,58.13
2025-10-01 23:06:06,S021,Asa Sul,-15.7974,-47.8825,Brasília,391.84,22.78,56.6
2025-10-01 23:06:06,S022,Asa Norte,-15.7747,-47.885,Brasília,403.11,23.32,36.36
2025-10-01 23:06:06,S023,Lago Sul,-15.825,-47.853,Brasília,401.16,24.86,50.59
2025-10-01 23:06:06,S024,Lago Norte,-15.763,-47.807,Brasília,389.22,31.84,39.99
2025-10-01 23:06:06,S025,Boa Viagem,-8.1125,-34.9036,Recife,394.21,21.64,44.63
2025-10-01 23:06:06,S026,Graças,-8.0526,-34.8944,Recife,388.52,21.29,58.04
2025-10-01 23:06:06,S027,Espinheiro,-8.049,-34.906,Recife,473.35,60.82,73.52
2025-10-01 23:06:06,S028,Meireles,-3.7295,-38.5216,Fortaleza,417.69,23.2,58.77
2025-10-01 23:06:06,S029,Aldeota,-3.7273,-38.519,Fortaleza,391.89,24.33,47.53
2025-10-01 23:06:06,S030,Praia de Iracema,-3.717,-38.536,Fortaleza,410.78,23.23,58.68
2025-10-01 23:06:06,S031,Centro Histórico,-12.9711,-38.51,Salvador,405.53,18.25,59.96
2025-10-01 23:06:06,S032,Barra,-12.981,-38.51,Salvador,399.39,22.73,59.87
2025-10-01 23:06:06,S033,Ondina,-12.9782,-38.503,Salvador,416.8,15.51,59.36
2025-10-01 23:06:06,S034,Batel,-25.4284,-49.2733,Curitiba,395.96,28.12,49.37
2025-10-01 23:06:06,S035,Centro,-25.4287,-49.2731,Curitiba,402.1,19.83,55.68
2025-10-01 23:06:06,S036,Água Verde,-25.448,-49.282,Curitiba,398.59,26.38,37.4
2025-10-01 23:06:06,S037,Cabral,-25.419,-49.269,Curitiba,405.07,15.28,58.16
2025-10-01 23:06:06,S038,Moinhos de Vento,-30.0346,-51.216,Porto Alegre,399.55,25.74,47.03
2025-10-01 23:06:06,S039,Centro Histórico,-30.0277,-51.2287,Porto Alegre,404.17,20.65,40.1
2025-10-01 23:06:06,S040,Petrópolis,-30.0215,-51.2005,Porto Alegre,419.08,28.41,50.91
2025-10-01 23:06:06,S041,Cidade Baixa,-30.033,-51.224,Porto Alegre,552.63,44.22,60.0
2025-10-01 23:06:06,S042,Praia de Belas,-30.053,-51.212,Porto Alegre,398.36,26.95,35.12
2025-10-01 23:06:06,S043,Boa Vista,-3.0653,-60.025,Manaus,405.51,30.94,51.78
2025-10-01 23:06:06,S044,Centro,-3.119,-60.0217,Manaus,410.97,19.78,42.56
2025-10-01 23:06:06,S045,Aleixo,-3.1272,-60.005,Manaus,414.99,34.07,57.7
2025-10-01 23:06:06,S046,Centro,-1.455,-48.503,Belém,398.06,21.72,33.38
2025-10-01 23:06:06,S047,Reduto,-1.44,-48.502,Belém,382.01,18.43,46.8
2025-10-01 23:06:06,S048,Cidade Velha,-1.465,-48.492,Belém,418.84,16.72,36.5
2025-10-01 23:06:06,S049,Setor Oeste,-16.686,-49.262,Goiânia,382.25,29.51,40.23
2025-10-01 23:06:06,S050,Setor Bueno,-16.678,-49.255,Goiânia,412.77,25.56,49.54
2025-10-01 23:06:06,S051,Savassi,-19.935,-43.935,Belo Horizonte,381.62,17.96,51.97
