timestamp,station_id,station_name,latitude,longitude,city,CO2,PM2_5,O3
2025-10-01 22:01:23,S001,Centro,-22.9068,-43.1729,Rio de Janeiro,406.22,19.24,48.63
2025-10-01 22:01:23,S002,Copacabana,-22.9687,-43.1869,Rio de Janeiro,386.02,15.85,52.21
2025-10-01 22:01:23,S003,Tijuca,-22.9309,-43.2376,Rio de Janeiro,400.57,27.98,34.28
2025-10-01 22:01:23,S004,Nova Iguaçu,-22.7598,-43.4516,Rio de Janeiro,392.17,18.76,35.4
2025-10-01 22:01:23,S005,Botafogo,-22.9509,-43.1815,Rio de Janeiro,419.48,21.84,48.09
2025-10-01 22:01:23,S006,Leblon,-22.9831,-43.2227,Rio de Janeiro,545.74,92.59,61.57
2025-10-01 22:01:23,S007,Ipanema,-22.9839,-43.206,Rio de Janeiro,416.42,30.6,51.76
2025-10-01 22:01:23,S008,Barra da Tijuca,-23.0007,-43.3653,Rio de Janeiro,383.92,24.38,59.71
2025-10-01 22:01:23,S009,Lagoa,-22.9745,-43.2041,Rio de Janeiro,391.55,24.2,35.56
2025-10-01 22:01:23,S010,Jardim Paulista,-23.5711,-46.652,São Paulo,399.08,29.77,56.03
2025-10-01 22:01:23,S011,Vila Madalena,-23.5567,-46.6892,São Paulo,474.75,59.37,69.54
2025-10-01 22:01:23,S012,Pinheiros,-23.5675,-46.7016,São Paulo,396.08,16.71,48.56
2025-10-01 22:01:23,S013,Moema,-23.6008,-46.6739,São Paulo,387.49,24.08,41.36
2025-10-01 22:01:23,S014,Bela Vista,-23.5644,-46.6472,São Paulo,400.66,34.41,34.13
2025-10-01 22:01:23,S015,Itaim Bibi,-23.5845,-46.6812,São Paulo,513.3,54.25,62.93
2025-10-01 22:01:23,S016,Liberdade,-23.57,-46.632,São Paulo,411.4,18.83,37.41
2025-10-01 22:01:23,S017,Savassi,-19.9311,-43.9378,Belo Horizonte,385.94,29.22,32.58
2025-10-01 22:01:23,S018,Pampulha,-19.8513,-43.9586,Belo Horizonte,408.95,15.64,59.65
2025-10-01 22:01:23,S019,Funcionários,-19.9305,-43.9381,Belo Horizonte,381.82,32.4,31.27
2025-10-01 22:01:23,S020,Belvedere,-19.932,-43.957,Belo Horizonte,413.16,22.24,38.36
2025-10-01 22:01:23,S021,Asa Sul,-15.7974,-47.8825,Brasília,381.34,15.3,41.56
2025-10-01 22:01:23,S022,Asa Norte,-15.7747,-47.885,Brasília,380.66,26.88,46.62
2025-10-01 22:01:23,S023,Lago Sul,-15.825,-47.853,Brasília,383.65,28.3,45.54
2025-10-01 22:01:23,S024,Lago Norte,-15.763,-47.807,Brasília,387.38,28.18,51.64
2025-10-01 22:01:23,S025,Boa Viagem,-8.1125,-34.9036,Recife,381.66,34.09,52.96
2025-10-01 22:01:23,S026,Graças,-8.0526,-34.8944,Recife,419.64,24.83,52.09
2025-10-01 22:01:23,S027,Espinheiro,-8.049,-34.906,Recife,404.17,23.92,32.95
2025-10-01 22:01:23,S028,Meireles,-3.7295,-38.5216,Fortaleza,412.13,33.16,41.56
2025-10-01 22:01:23,S029,Aldeota,-3.7273,-38.519,Fortaleza,435.1,68.96,69.01
2025-10-01 22:01:23,S030,Praia de Iracema,-3.717,-38.536,Fortaleza,382.49,31.06,54.38
2025-10-01 22:01:23,S031,Centro Histórico,-12.9711,-38.51,Salvador,407.12,24.6,47.01
2025-10-01 22:01:23,S032,Barra,-12.981,-38.51,Salvador,392.35,27.7,57.63
2025-10-01 22:01:23,S033,Ondina,-12.9782,-38.503,Salvador,414.83,31.73,55.32
2025-10-01 22:01:23,S034,Batel,-25.4284,-49.2733,Curitiba,415.88,28.89,58.28
2025-10-01 22:01:23,S035,Centro,-25.4287,-49.2731,Curitiba,408.0,23.94,31.67
2025-10-01 22:01:23,S036,Água Verde,-25.448,-49.282,Curitiba,416.06,27.35,45.8
2025-10-01 22:01:23,S037,Cabral,-25.419,-49.269,Curitiba,390.49,25.82,49.55
2025-10-01 22:01:23,S038,Moinhos de Vento,-30.0346,-51.216,Porto Alegre,510.79,80.71,73.24
2025-10-01 22:01:23,S039,Centro Histórico,-30.0277,-51.2287,Porto Alegre,419.78,24.35,38.15
2025-10-01 22:01:23,S040,Petrópolis,-30.0215,-51.2005,Porto Alegre,389.81,16.65,54.36
2025-10-01 22:01:23,S041,Cidade Baixa,-30.033,-51.224,Porto Alegre,410.27,31.34,41.82
2025-10-01 22:01:23,S042,Praia de Belas,-30.053,-51.212,Porto Alegre,381.9,21.24,30.3
2025-10-01 22:01:23,S043,Boa Vista,-3.0653,-60.025,Manaus,392.43,24.62,37.59
2025-10-01 22:01:23,S044,Centro,-3.119,-60.0217,Manaus,386.42,25.2,37.51
2025-10-01 22:01:23,S045,Aleixo,-3.1272,-60.005,Manaus,388.35,15.73,36.68
2025-10-01 22:01:23,S046,Centro,-1.455,-48.503,Belém,384.78,21.16,47.04
2025-10-01 22:01:23,S047,Reduto,-1.44,-48.502,Belém,402.97,34.12,35.64
2025-10-01 22:01:23,S048,Cidade Velha,-1.465,-48.492,Belém,413.85,22.23,56.07
2025-10-01 22:01:23,S049,Setor Oeste,-16.686,-49.262,Goiânia,393.47,15.98,36.08
2025-10-01 22:01:23,S050,Setor Bueno,-16.678,-49.255,Goiânia,416.84,33.03,41.3
2025-10-01 22:01:23,S051,Savassi,-19.935,-43.935,Belo Horizonte,533.64,58.22,59.99
