timestamp,station_id,station_name,latitude,longitude,city,CO2,PM2_5,O3
2025-10-01 22:55:51,S001,Centro,-22.9068,-43.1729,Rio de Janeiro,414.31,22.95,42.95
2025-10-01 22:55:51,S002,Copacabana,-22.9687,-43.1869,Rio de Janeiro,405.43,33.06,49.04
2025-10-01 22:55:51,S003,Tijuca,-22.9309,-43.2376,Rio de Janeiro,417.23,20.73,42.05
2025-10-01 22:55:51,S004,Nova Iguaçu,-22.7598,-43.4516,Rio de Janeiro,414.03,18.97,35.26
2025-10-01 22:55:51,S005,Botafogo,-22.9509,-43.1815,Rio de Janeiro,393.77,31.01,46.49
2025-10-01 22:55:51,S006,Leblon,-22.9831,-43.2227,Rio de Janeiro,400.61,23.43,38.97
2025-10-01 22:55:51,S007,Ipanema,-22.9839,-43.206,Rio de Janeiro,392.32,17.55,32.89
2025-10-01 22:55:51,S008,Barra da Tijuca,-23.0007,-43.3653,Rio de Janeiro,393.64,18.51,34.48
2025-10-01 22:55:51,S009,Lagoa,-22.9745,-43.2041,Rio de Janeiro,380.95,26.09,44.51
2025-10-01 22:55:51,S010,Jardim Paulista,-23.5711,-46.652,São Paulo,387.85,26.19,31.92
2025-10-01 22:55:51,S011,Vila Madalena,-23.5567,-46.6892,São Paulo,385.5,28.36,45.31
2025-10-01 22:55:51,S012,Pinheiros,-23.5675,-46.7016,São Paulo,393.65,16.55,57.98
2025-10-01 22:55:51,S013,Moema,-23.6008,-46.6739,São Paulo,487.01,43.55,53.65
2025-10-01 22:55:51,S014,Bela Vista,-23.5644,-46.6472,São Paulo,411.55,28.34,36.95
2025-10-01 22:55:51,S015,Itaim Bibi,-23.5845,-46.6812,São Paulo,416.23,22.68,43.23
2025-10-01 22:55:51,S016,Liberdade,-23.57,-46.632,São Paulo,416.58,20.52,44.13
2025-10-01 22:55:51,S017,Savassi,-19.9311,-43.9378,Belo Horizonte,401.0,17.92,45.01
2025-10-01 22:55:51,S018,Pampulha,-19.8513,-43.9586,Belo Horizonte,388.17,16.77,54.49
2025-10-01 22:55:51,S019,Funcionários,-19.9305,-43.9381,Belo Horizonte,386.4,24.34,46.4
2025-10-01 22:55:51,S020,Belvedere,-19.932,-43.957,Belo Horizonte,415.43,29.17,35.03
2025-10-01 22:55:51,S021,Asa Sul,-15.7974,-47.8825,Brasília,417.79,30.28,55.89
2025-10-01 22:55:51,S022,Asa Norte,-15.7747,-47.885,Brasília,501.78,60.23,81.92
2025-10-01 22:55:51,S023,Lago Sul,-15.825,-47.853,Brasília,396.28,34.86,36.97
2025-10-01 22:55:51,S024,Lago Norte,-15.763,-47.807,Brasília,417.64,26.72,58.48
2025-10-01 22:55:51,S025,Boa Viagem,-8.1125,-34.9036,Recife,381.72,32.75,32.83
2025-10-01 22:55:51,S026,Graças,-8.0526,-34.8944,Recife,503.61,56.37,48.25
2025-10-01 22:55:51,S027,Espinheiro,-8.049,-34.906,Recife,387.49,31.13,53.19
2025-10-01 22:55:51,S028,Meireles,-3.7295,-38.5216,Fortaleza,404.92,25.84,59.36
2025-10-01 22:55:51,S029,Aldeota,-3.7273,-38.519,Fortaleza,411.31,26.75,55.58
2025-10-01 22:55:51,S030,Praia de Iracema,-3.717,-38.536,Fortaleza,416.33,20.34,42.16
2025-10-01 22:55:51,S031,Centro Histórico,-12.9711,-38.51,Salvador,407.62,22.52,46.94
2025-10-01 22:55:51,S032,Barra,-12.981,-38.51,Salvador,419.29,15.8,55.19
2025-10-01 22:55:51,S033,Ondina,-12.9782,-38.503,Salvador,413.3,18.74,43.55
2025-10-01 22:55:51,S034,Batel,-25.4284,-49.2733,Curitiba,410.39,25.67,43.36
2025-10-01 22:55:51,S035,Centro,-25.4287,-49.2731,Curitiba,399.1,17.09,44.6
2025-10-01 22:55:51,S036,Água Verde,-25.448,-49.282,Curitiba,409.62,26.93,42.45
2025-10-01 22:55:51,S037,Cabral,-25.419,-49.269,Curitiba,418.43,34.54,52.05
2025-10-01 22:55:51,S038,Moinhos de Vento,-30.0346,-51.216,Porto Alegre,404.12,28.66,51.41
2025-10-01 22:55:51,S039,Centro Histórico,-30.0277,-51.2287,Porto Alegre,417.14,23.6,48.94
2025-10-01 22:55:51,S040,Petrópolis,-30.0215,-51.2005,Porto Alegre,383.39,20.62,34.59
2025-10-01 22:55:51,S041,Cidade Baixa,-30.033,-51.224,Porto Alegre,417.57,27.85,35.67
2025-10-01 22:55:51,S042,Praia de Belas,-30.053,-51.212,Porto Alegre,408.86,33.92,36.82
2025-10-01 22:55:51,S043,Boa Vista,-3.0653,-60.025,Manaus,480.65,77.39,58.87
2025-10-01 22:55:51,S044,Centro,-3.119,-60.0217,Manaus,389.24,15.08,36.09
2025-10-01 22:55:51,S045,Aleixo,-3.1272,-60.005,Manaus,390.63,17.49,38.92
2025-10-01 22:55:51,S046,Centro,-1.455,-48.503,Belém,404.86,33.43,45.93
2025-10-01 22:55:51,S047,Reduto,-1.44,-48.502,Belém,404.67,24.56,45.87
2025-10-01 22:55:51,S048,Cidade Velha,-1.465,-48.492,Belém,384.64,18.81,48.95
2025-10-01 22:55:51,S049,Setor Oeste,-16.686,-49.262,Goiânia,387.75,26.17,47.87
2025-10-01 22:55:51,S050,Setor Bueno,-16.678,-49.255,Goiânia,414.47,16.68,51.7
2025-10-01 22:55:51,S051,Savassi,-19.935,-43.935,Belo Horizonte,398.07,18.37,39.66
