timestamp,station_id,station_name,latitude,longitude,city,CO2,PM2_5,O3
2025-10-01 22:56:58,S001,Centro,-22.9068,-43.1729,Rio de Janeiro,417.39,21.78,57.23
2025-10-01 22:56:58,S002,Copacabana,-22.9687,-43.1869,Rio de Janeiro,404.98,27.2,58.63
2025-10-01 22:56:58,S003,Tijuca,-22.9309,-43.2376,Rio de Janeiro,416.03,15.6,50.3
2025-10-01 22:56:58,S004,Nova Iguaçu,-22.7598,-43.4516,Rio de Janeiro,477.9,79.04,54.71
2025-10-01 22:56:58,S005,Botafogo,-22.9509,-43.1815,Rio de Janeiro,409.54,25.82,36.88
2025-10-01 22:56:58,S006,Leblon,-22.9831,-43.2227,Rio de Janeiro,383.71,32.52,34.02
2025-10-01 22:56:58,S007,Ipanema,-22.9839,-43.206,Rio de Janeiro,387.02,33.87,47.04
2025-10-01 22:56:58,S008,Barra da Tijuca,-23.0007,-43.3653,Rio de Janeiro,505.78,60.63,57.51
2025-10-01 22:56:58,S009,Lagoa,-22.9745,-43.2041,Rio de Janeiro,382.62,32.57,57.65
2025-10-01 22:56:58,S010,Jardim Paulista,-23.5711,-46.652,São Paulo,414.05,28.81,36.74
2025-10-01 22:56:58,S011,Vila Madalena,-23.5567,-46.6892,São Paulo,406.8,26.88,50.95
2025-10-01 22:56:58,S012,Pinheiros,-23.5675,-46.7016,São Paulo,411.99,23.39,58.19
2025-10-01 22:56:58,S013,Moema,-23.6008,-46.6739,São Paulo,538.34,62.77,85.91
2025-10-01 22:56:58,S014,Bela Vista,-23.5644,-46.6472,São Paulo,388.22,32.33,31.68
2025-10-01 22:56:58,S015,Itaim Bibi,-23.5845,-46.6812,São Paulo,418.05,31.03,33.97
2025-10-01 22:56:58,S016,Liberdade,-23.57,-46.632,São Paulo,382.55,23.8,35.07
2025-10-01 22:56:58,S017,Savassi,-19.9311,-43.9378,Belo Horizonte,413.18,25.49,59.88
2025-10-01 22:56:58,S018,Pampulha,-19.8513,-43.9586,Belo Horizonte,388.74,17.26,54.27
2025-10-01 22:56:58,S019,Funcionários,-19.9305,-43.9381,Belo Horizonte,399.2,32.6,47.0
2025-10-01 22:56:58,S020,Belvedere,-19.932,-43.957,Belo Horizonte,400.14,32.16,49.34
2025-10-01 22:56:58,S021,Asa Sul,-15.7974,-47.8825,Brasília,415.71,26.7,45.28
2025-10-01 22:56:58,S022,Asa Norte,-15.7747,-47.885,Brasília,388.71,19.68,40.79
2025-10-01 22:56:58,S023,Lago Sul,-15.825,-47.853,Brasília,458.99,51.0,48.89
2025-10-01 22:56:58,S024,Lago Norte,-15.763,-47.807,Brasília,412.77,31.77,40.68
2025-10-01 22:56:58,S025,Boa Viagem,-8.1125,-34.9036,Recife,388.14,16.0,58.01
2025-10-01 22:56:58,S026,Graças,-8.0526,-34.8944,Recife,413.97,16.89,32.27
2025-10-01 22:56:58,S027,Espinheiro,-8.049,-34.906,Recife,395.78,23.8,33.02
2025-10-01 22:56:58,S028,Meireles,-3.7295,-38.5216,Fortaleza,389.28,18.37,31.02
2025-10-01 22:56:58,S029,Aldeota,-3.7273,-38.519,Fortaleza,418.0,19.9,42.87
2025-10-01 22:56:58,S030,Praia de Iracema,-3.717,-38.536,Fortaleza,418.93,24.89,51.88
2025-10-01 22:56:58,S031,Centro Histórico,-12.9711,-38.51,Salvador,383.65,30.95,45.51
2025-10-01 22:56:58,S032,Barra,-12.981,-38.51,Salvador,388.1,25.29,40.85
2025-10-01 22:56:58,S033,Ondina,-12.9782,-38.503,Salvador,504.16,54.67,69.61
2025-10-01 22:56:58,S034,Batel,-25.4284,-49.2733,Curitiba,412.54,16.43,48.24
2025-10-01 22:56:58,S035,Centro,-25.4287,-49.2731,Curitiba,535.61,59.36,78.57
2025-10-01 22:56:58,S036,Água Verde,-25.448,-49.282,Curitiba,395.88,29.64,44.32
2025-10-01 22:56:58,S037,Cabral,-25.419,-49.269,Curitiba,404.11,22.83,41.98
2025-10-01 22:56:58,S038,Moinhos de Vento,-30.0346,-51.216,Porto Alegre,387.07,16.05,57.2
2025-10-01 22:56:58,S039,Centro Histórico,-30.0277,-51.2287,Porto Alegre,400.79,34.86,41.35
2025-10-01 22:56:58,S040,Petrópolis,-30.0215,-51.2005,Porto Alegre,419.94,18.49,31.19
2025-10-01 22:56:58,S041,Cidade Baixa,-30.033,-51.224,Porto Alegre,387.59,17.29,31.53
2025-10-01 22:56:58,S042,Praia de Belas,-30.053,-51.212,Porto Alegre,396.58,25.14,36.74
2025-10-01 22:56:58,S043,Boa Vista,-3.0653,-60.025,Manaus,410.17,16.36,35.32
2025-10-01 22:56:58,S044,Centro,-3.119,-60.0217,Manaus,384.74,23.78,53.55
2025-10-01 22:56:58,S045,Aleixo,-3.1272,-60.005,Manaus,381.46,22.95,43.3
2025-10-01 22:56:58,S046,Centro,-1.455,-48.503,Belém,414.71,20.24,32.16
2025-10-01 22:56:58,S047,Reduto,-1.44,-48.502,Belém,409.74,26.62,51.26
2025-10-01 22:56:58,S048,Cidade Velha,-1.465,-48.492,Belém,395.18,19.45,33.71
2025-10-01 22:56:58,S049,Setor Oeste,-16.686,-49.262,Goiânia,475.81,55.26,85.82
2025-10-01 22:56:58,S050,Setor Bueno,-16.678,-49.255,Goiânia,383.38,23.17,44.34
2025-10-01 22:56:58,S051,Savassi,-19.935,-43.935,Belo Horizonte,505.02,77.3,81.34
