timestamp,station_id,station_name,latitude,longitude,city,CO2,PM2_5,O3
2025-10-01 22:04:03,RJ001,Centro,-22.9068,-43.1729,Rio de Janeiro,407.4,15.73,40.36
2025-10-01 22:04:03,RJ002,Copacabana,-22.9687,-43.1869,Rio de Janeiro,504.4,80.54,74.5
2025-10-01 22:04:03,RJ003,Tijuca,-22.9309,-43.2376,Rio de Janeiro,396.03,32.29,48.68
2025-10-01 22:04:03,RJ004,Nova Iguaçu,-22.7598,-43.4516,Nova Iguaçu,408.06,24.65,31.49
2025-10-01 22:04:03,RJ005,Niterói,-22.8832,-43.1034,Niterói,539.81,67.36,58.88
2025-10-01 22:04:03,RJ006,Petrópolis,-22.505,-43.1786,Petrópolis,416.71,34.87,46.41
2025-10-01 22:04:03,RJ007,Campos dos Goytacazes,-21.7622,-41.3181,Campos dos Goytacazes,419.62,22.64,32.24
2025-10-01 22:04:03,RJ008,Volta Redonda,-22.5202,-44.0996,Volta Redonda,395.26,25.9,51.19
2025-10-01 22:04:03,SP001,Paulista,-23.5614,-46.6559,São Paulo,384.2,29.6,37.93
2025-10-01 22:04:03,SP002,Pinheiros,-23.561,-46.7025,São Paulo,386.97,16.55,51.57
2025-10-01 22:04:03,SP003,Ibirapuera,-23.5874,-46.6576,São Paulo,394.2,26.59,34.56
2025-10-01 22:04:03,SP004,Campinas,-22.9099,-47.0626,Campinas,408.3,30.93,33.12
2025-10-01 22:04:03,SP005,Santos,-23.954,-46.3336,Santos,408.23,32.47,46.8
2025-10-01 22:04:03,SP006,São José dos Campos,-23.2237,-45.9009,São José dos Campos,387.0,15.71,52.19
2025-10-01 22:04:03,SP007,Sorocaba,-23.5015,-47.4526,Sorocaba,452.84,62.24,66.4
2025-10-01 22:04:03,SP008,Ribeirão Preto,-21.1786,-47.8066,Ribeirão Preto,398.42,25.36,48.19
2025-10-01 22:04:03,MG001,Savassi,-19.935,-43.9336,Belo Horizonte,408.54,24.07,40.18
2025-10-01 22:04:03,MG002,Pampulha,-19.8522,-43.9766,Belo Horizonte,396.51,32.57,57.38
2025-10-01 22:04:03,MG003,Uberlândia,-18.9188,-48.2768,Uberlândia,393.19,29.62,45.13
2025-10-01 22:04:03,MG004,Juiz de Fora,-21.7622,-43.3434,Juiz de Fora,394.12,20.62,47.85
2025-10-01 22:04:03,MG005,Montes Claros,-16.7282,-43.8578,Montes Claros,392.44,26.66,30.34
2025-10-01 22:04:03,MG006,Uberaba,-19.7477,-47.931,Uberaba,389.2,26.6,57.73
2025-10-01 22:04:03,MG007,Ouro Preto,-20.3856,-43.5036,Ouro Preto,399.95,31.9,49.65
2025-10-01 22:04:03,ES001,Vitória,-20.3155,-40.3128,Vitória,410.56,27.54,58.03
2025-10-01 22:04:03,ES002,Vila Velha,-20.3417,-40.2875,Vila Velha,386.03,16.64,49.16
2025-10-01 22:04:03,ES003,Serra,-20.1211,-40.3074,Serra,559.03,61.13,77.82
2025-10-01 22:04:03,ES004,Cariacica,-20.2637,-40.4165,Cariacica,419.05,21.83,59.64
2025-10-01 22:04:03,ES005,Guarapari,-20.6771,-40.5093,Guarapari,387.27,15.73,31.35
