timestamp,station_id,station_name,latitude,longitude,city,CO2,PM2_5,O3
2025-10-01 22:53:11,S001,Centro,-22.9068,-43.1729,Rio de Janeiro,418.11,15.05,35.17
2025-10-01 22:53:11,S002,Copacabana,-22.9687,-43.1869,Rio de Janeiro,390.72,33.9,32.66
2025-10-01 22:53:11,S003,Tijuca,-22.9309,-43.2376,Rio de Janeiro,485.52,59.28,68.98
2025-10-01 22:53:11,S004,Nova Iguaçu,-22.7598,-43.4516,Rio de Janeiro,380.4,34.3,49.28
2025-10-01 22:53:11,S005,Botafogo,-22.9509,-43.1815,Rio de Janeiro,389.77,19.12,40.75
2025-10-01 22:53:11,S006,Leblon,-22.9831,-43.2227,Rio de Janeiro,498.54,59.52,77.15
2025-10-01 22:53:11,S007,Ipanema,-22.9839,-43.206,Rio de Janeiro,416.58,26.02,39.97
2025-10-01 22:53:11,S008,Barra da Tijuca,-23.0007,-43.3653,Rio de Janeiro,386.2,34.41,32.64
2025-10-01 22:53:11,S009,Lagoa,-22.9745,-43.2041,Rio de Janeiro,509.84,70.81,77.76
2025-10-01 22:53:11,S010,Jardim Paulista,-23.5711,-46.652,São Paulo,522.41,84.82,52.66
2025-10-01 22:53:11,S011,Vila Madalena,-23.5567,-46.6892,São Paulo,397.85,29.82,51.42
2025-10-01 22:53:11,S012,Pinheiros,-23.5675,-46.7016,São Paulo,542.03,44.85,50.17
2025-10-01 22:53:11,S013,Moema,-23.6008,-46.6739,São Paulo,408.15,15.46,37.02
2025-10-01 22:53:11,S014,Bela Vista,-23.5644,-46.6472,São Paulo,405.98,15.46,57.17
2025-10-01 22:53:11,S015,Itaim Bibi,-23.5845,-46.6812,São Paulo,383.75,34.53,38.07
2025-10-01 22:53:11,S016,Liberdade,-23.57,-46.632,São Paulo,414.35,31.47,50.79
2025-10-01 22:53:11,S017,Savassi,-19.9311,-43.9378,Belo Horizonte,390.21,32.77,43.67
2025-10-01 22:53:11,S018,Pampulha,-19.8513,-43.9586,Belo Horizonte,386.76,18.99,48.7
2025-10-01 22:53:11,S019,Funcionários,-19.9305,-43.9381,Belo Horizonte,386.07,18.9,33.97
2025-10-01 22:53:11,S020,Belvedere,-19.932,-43.957,Belo Horizonte,380.98,25.07,32.16
2025-10-01 22:53:11,S021,Asa Sul,-15.7974,-47.8825,Brasília,405.02,16.92,32.16
2025-10-01 22:53:11,S022,Asa Norte,-15.7747,-47.885,Brasília,404.45,27.71,42.38
2025-10-01 22:53:11,S023,Lago Sul,-15.825,-47.853,Brasília,480.75,65.45,59.6
2025-10-01 22:53:11,S024,Lago Norte,-15.763,-47.807,Brasília,403.29,20.59,40.51
2025-10-01 22:53:11,S025,Boa Viagem,-8.1125,-34.9036,Recife,408.97,20.52,43.92
2025-10-01 22:53:11,S026,Graças,-8.0526,-34.8944,Recife,407.25,24.35,49.64
2025-10-01 22:53:11,S027,Espinheiro,-8.049,-34.906,Recife,404.26,33.18,57.42
2025-10-01 22:53:11,S028,Meireles,-3.7295,-38.5216,Fortaleza,415.87,23.08,59.64
2025-10-01 22:53:11,S029,Aldeota,-3.7273,-38.519,Fortaleza,414.71,20.45,32.78
2025-10-01 22:53:11,S030,Praia de Iracema,-3.717,-38.536,Fortaleza,403.4,29.96,37.87
2025-10-01 22:53:11,S031,Centro Histórico,-12.9711,-38.51,Salvador,381.81,34.14,36.85
2025-10-01 22:53:11,S032,Barra,-12.981,-38.51,Salvador,409.7,15.5,46.96
2025-10-01 22:53:11,S033,Ondina,-12.9782,-38.503,Salvador,390.62,23.47,46.33
2025-10-01 22:53:11,S034,Batel,-25.4284,-49.2733,Curitiba,385.42,29.1,53.47
2025-10-01 22:53:11,S035,Centro,-25.4287,-49.2731,Curitiba,406.81,25.64,37.85
2025-10-01 22:53:11,S036,Água Verde,-25.448,-49.282,Curitiba,397.33,34.69,58.84
2025-10-01 22:53:11,S037,Cabral,-25.419,-49.269,Curitiba,398.1,19.51,31.77
2025-10-01 22:53:11,S038,Moinhos de Vento,-30.0346,-51.216,Porto Alegre,397.94,21.96,33.64
2025-10-01 22:53:11,S039,Centro Histórico,-30.0277,-51.2287,Porto Alegre,396.3,19.7,47.72
2025-10-01 22:53:11,S040,Petrópolis,-30.0215,-51.2005,Porto Alegre,404.36,25.13,50.14
2025-10-01 22:53:11,S041,Cidade Baixa,-30.033,-51.224,Porto Alegre,396.62,24.84,40.99
2025-10-01 22:53:11,S042,Praia de Belas,-30.053,-51.212,Porto Alegre,410.05,15.97,48.83
2025-10-01 22:53:11,S043,Boa Vista,-3.0653,-60.025,Manaus,382.47,32.53,43.03
2025-10-01 22:53:11,S044,Centro,-3.119,-60.0217,Manaus,419.45,26.98,31.67
2025-10-01 22:53:11,S045,Aleixo,-3.1272,-60.005,Manaus,418.25,33.23,32.78
2025-10-01 22:53:11,S046,Centro,-1.455,-48.503,Belém,407.31,30.54,31.9
2025-10-01 22:53:11,S047,Reduto,-1.44,-48.502,Belém,382.73,25.71,46.52
2025-10-01 22:53:11,S048,Cidade Velha,-1.465,-48.492,Belém,414.93,15.42,57.57
2025-10-01 22:53:11,S049,Setor Oeste,-16.686,-49.262,Goiânia,400.02,28.61,36.31
2025-10-01 22:53:11,S050,Setor Bueno,-16.678,-49.255,Goiânia,530.48,64.68,53.46
2025-10-01 22:53:11,S051,Savassi,-19.935,-43.935,Belo Horizonte,406.83,21.78,33.35
