timestamp,station_id,station_name,latitude,longitude,city,CO2,PM2_5,O3
2025-10-01 21:59:18,S001,Centro,-22.9068,-43.1729,Rio de Janeiro,417.86,30.78,52.71
2025-10-01 21:59:18,S002,Copacabana,-22.9687,-43.1869,Rio de Janeiro,381.57,31.75,36.27
2025-10-01 21:59:18,S003,Tijuca,-22.9309,-43.2376,Rio de Janeiro,413.68,32.61,51.1
2025-10-01 21:59:18,S004,Nova Iguaçu,-22.7598,-43.4516,Rio de Janeiro,381.94,17.64,45.03
2025-10-01 21:59:18,S005,Botafogo,-22.9509,-43.1815,Rio de Janeiro,411.62,31.35,31.6
2025-10-01 21:59:18,S006,Leblon,-22.9831,-43.2227,Rio de Janeiro,418.69,30.31,41.54
2025-10-01 21:59:18,S007,Ipanema,-22.9839,-43.206,Rio de Janeiro,396.35,26.88,40.72
2025-10-01 21:59:18,S008,Barra da Tijuca,-23.0007,-43.3653,Rio de Janeiro,402.9,33.9,50.31
2025-10-01 21:59:18,S009,Lagoa,-22.9745,-43.2041,Rio de Janeiro,400.37,24.94,34.84
2025-10-01 21:59:18,S010,Jardim Paulista,-23.5711,-46.652,São Paulo,388.87,21.66,45.26
2025-10-01 21:59:18,S011,Vila Madalena,-23.5567,-46.6892,São Paulo,401.05,26.37,38.28
2025-10-01 21:59:18,S012,Pinheiros,-23.5675,-46.7016,São Paulo,385.15,17.0,58.54
2025-10-01 21:59:18,S013,Moema,-23.6008,-46.6739,São Paulo,408.43,15.99,50.31
2025-10-01 21:59:18,S014,Bela Vista,-23.5644,-46.6472,São Paulo,389.81,17.3,44.37
2025-10-01 21:59:18,S015,Itaim Bibi,-23.5845,-46.6812,São Paulo,385.32,25.78,32.02
2025-10-01 21:59:18,S016,Liberdade,-23.57,-46.632,São Paulo,403.16,19.87,34.72
2025-10-01 21:59:18,S017,Savassi,-19.9311,-43.9378,Belo Horizonte,538.0,61.52,84.22
2025-10-01 21:59:18,S018,Pampulha,-19.8513,-43.9586,Belo Horizonte,388.67,26.82,51.4
2025-10-01 21:59:18,S019,Funcionários,-19.9305,-43.9381,Belo Horizonte,392.44,18.18,43.04
2025-10-01 21:59:18,S020,Belvedere,-19.932,-43.957,Belo Horizonte,380.66,25.86,59.35
2025-10-01 21:59:18,S021,Asa Sul,-15.7974,-47.8825,Brasília,380.8,15.57,35.42
2025-10-01 21:59:18,S022,Asa Norte,-15.7747,-47.885,Brasília,399.73,34.25,35.58
2025-10-01 21:59:18,S023,Lago Sul,-15.825,-47.853,Brasília,409.18,28.27,32.24
2025-10-01 21:59:18,S024,Lago Norte,-15.763,-47.807,Brasília,408.42,27.0,46.08
2025-10-01 21:59:18,S025,Boa Viagem,-8.1125,-34.9036,Recife,412.92,25.3,31.04
2025-10-01 21:59:18,S026,Graças,-8.0526,-34.8944,Recife,477.65,76.62,67.07
2025-10-01 21:59:18,S027,Espinheiro,-8.049,-34.906,Recife,399.07,20.39,40.73
2025-10-01 21:59:18,S028,Meireles,-3.7295,-38.5216,Fortaleza,394.64,33.1,38.29
2025-10-01 21:59:18,S029,Aldeota,-3.7273,-38.519,Fortaleza,389.38,34.16,35.02
2025-10-01 21:59:18,S030,Praia de Iracema,-3.717,-38.536,Fortaleza,413.65,32.99,55.79
2025-10-01 21:59:18,S031,Centro Histórico,-12.9711,-38.51,Salvador,414.72,19.51,38.07
2025-10-01 21:59:18,S032,Barra,-12.981,-38.51,Salvador,408.13,28.94,58.63
2025-10-01 21:59:18,S033,Ondina,-12.9782,-38.503,Salvador,411.64,23.2,57.4
2025-10-01 21:59:18,S034,Batel,-25.4284,-49.2733,Curitiba,392.8,32.47,57.46
2025-10-01 21:59:18,S035,Centro,-25.4287,-49.2731,Curitiba,404.49,29.24,47.17
2025-10-01 21:59:18,S036,Água Verde,-25.448,-49.282,Curitiba,398.95,30.67,33.0
2025-10-01 21:59:18,S037,Cabral,-25.419,-49.269,Curitiba,381.25,21.09,48.68
2025-10-01 21:59:18,S038,Moinhos de Vento,-30.0346,-51.216,Porto Alegre,386.75,29.87,54.44
2025-10-01 21:59:18,S039,Centro Histórico,-30.0277,-51.2287,Porto Alegre,388.08,22.93,31.85
2025-10-01 21:59:18,S040,Petrópolis,-30.0215,-51.2005,Porto Alegre,397.73,30.85,52.75
2025-10-01 21:59:18,S041,Cidade Baixa,-30.033,-51.224,Porto Alegre,412.07,18.97,38.1
2025-10-01 21:59:18,S042,Praia de Belas,-30.053,-51.212,Porto Alegre,419.29,20.25,50.85
2025-10-01 21:59:18,S043,Boa Vista,-3.0653,-60.025,Manaus,403.0,28.76,38.38
2025-10-01 21:59:18,S044,Centro,-3.119,-60.0217,Manaus,380.61,34.34,40.62
2025-10-01 21:59:18,S045,Aleixo,-3.1272,-60.005,Manaus,403.86,18.86,52.64
2025-10-01 21:59:18,S046,Centro,-1.455,-48.503,Belém,412.61,27.85,45.82
2025-10-01 21:59:18,S047,Reduto,-1.44,-48.502,Belém,395.53,20.31,31.4
2025-10-01 21:59:18,S048,Cidade Velha,-1.465,-48.492,Belém,525.89,56.34,73.42
2025-10-01 21:59:18,S049,Setor Oeste,-16.686,-49.262,Goiânia,382.87,21.26,54.43
2025-10-01 21:59:18,S050,Setor Bueno,-16.678,-49.255,Goiânia,404.54,17.73,53.78
2025-10-01 21:59:18,S051,Savassi,-19.935,-43.935,Belo Horizonte,517.85,71.35,66.06
