timestamp,station_id,station_name,latitude,longitude,city,CO2,PM2_5,O3
2025-10-01 22:12:04,S001,Centro,-22.9068,-43.1729,Rio de Janeiro,399.52,18.23,32.52
2025-10-01 22:12:04,S002,Copacabana,-22.9687,-43.1869,Rio de Janeiro,398.3,28.27,36.52
2025-10-01 22:12:04,S003,Tijuca,-22.9309,-43.2376,Rio de Janeiro,418.94,28.17,31.7
2025-10-01 22:12:04,S004,Nova Iguaçu,-22.7598,-43.4516,Rio de Janeiro,408.08,26.77,59.29
2025-10-01 22:12:04,S005,Botafogo,-22.9509,-43.1815,Rio de Janeiro,409.66,19.62,44.74
2025-10-01 22:12:04,S006,Leblon,-22.9831,-43.2227,Rio de Janeiro,481.09,70.38,64.89
2025-10-01 22:12:04,S007,Ipanema,-22.9839,-43.206,Rio de Janeiro,404.55,15.85,57.53
2025-10-01 22:12:04,S008,Barra da Tijuca,-23.0007,-43.3653,Rio de Janeiro,402.28,23.16,30.04
2025-10-01 22:12:04,S009,Lagoa,-22.9745,-43.2041,Rio de Janeiro,411.65,25.74,45.44
2025-10-01 22:12:04,S010,Jardim Paulista,-23.5711,-46.652,São Paulo,392.9,16.61,58.12
2025-10-01 22:12:04,S011,Vila Madalena,-23.5567,-46.6892,São Paulo,405.51,32.56,58.31
2025-10-01 22:12:04,S012,Pinheiros,-23.5675,-46.7016,São Paulo,398.12,25.92,41.01
2025-10-01 22:12:04,S013,Moema,-23.6008,-46.6739,São Paulo,389.35,17.85,47.85
2025-10-01 22:12:04,S014,Bela Vista,-23.5644,-46.6472,São Paulo,388.38,23.49,48.25
2025-10-01 22:12:04,S015,Itaim Bibi,-23.5845,-46.6812,São Paulo,406.01,19.63,44.7
2025-10-01 22:12:04,S016,Liberdade,-23.57,-46.632,São Paulo,380.22,18.25,40.09
2025-10-01 22:12:04,S017,Savassi,-19.9311,-43.9378,Belo Horizonte,551.15,58.96,75.27
2025-10-01 22:12:04,S018,Pampulha,-19.8513,-43.9586,Belo Horizonte,409.42,31.66,59.94
2025-10-01 22:12:04,S019,Funcionários,-19.9305,-43.9381,Belo Horizonte,385.47,23.03,59.56
2025-10-01 22:12:04,S020,Belvedere,-19.932,-43.957,Belo Horizonte,401.19,28.55,51.13
2025-10-01 22:12:04,S021,Asa Sul,-15.7974,-47.8825,Brasília,388.94,31.1,31.22
2025-10-01 22:12:04,S022,Asa Norte,-15.7747,-47.885,Brasília,404.89,25.38,33.4
2025-10-01 22:12:04,S023,Lago Sul,-15.825,-47.853,Brasília,535.38,82.71,58.97
2025-10-01 22:12:04,S024,Lago Norte,-15.763,-47.807,Brasília,387.79,18.09,35.29
2025-10-01 22:12:04,S025,Boa Viagem,-8.1125,-34.9036,Recife,389.38,20.01,39.52
2025-10-01 22:12:04,S026,Graças,-8.0526,-34.8944,Recife,384.15,19.76,48.35
2025-10-01 22:12:04,S027,Espinheiro,-8.049,-34.906,Recife,392.63,27.95,48.69
2025-10-01 22:12:04,S028,Meireles,-3.7295,-38.5216,Fortaleza,407.12,18.89,41.93
2025-10-01 22:12:04,S029,Aldeota,-3.7273,-38.519,Fortaleza,403.49,26.47,59.8
2025-10-01 22:12:04,S030,Praia de Iracema,-3.717,-38.536,Fortaleza,383.16,24.98,39.76
2025-10-01 22:12:04,S031,Centro Histórico,-12.9711,-38.51,Salvador,392.25,28.93,54.88
2025-10-01 22:12:04,S032,Barra,-12.981,-38.51,Salvador,403.61,33.24,46.79
2025-10-01 22:12:04,S033,Ondina,-12.9782,-38.503,Salvador,413.66,30.01,38.12
2025-10-01 22:12:04,S034,Batel,-25.4284,-49.2733,Curitiba,384.25,23.17,33.54
2025-10-01 22:12:04,S035,Centro,-25.4287,-49.2731,Curitiba,397.54,30.26,31.0
2025-10-01 22:12:04,S036,Água Verde,-25.448,-49.282,Curitiba,381.4,18.39,44.46
2025-10-01 22:12:04,S037,Cabral,-25.419,-49.269,Curitiba,410.33,31.72,31.27
2025-10-01 22:12:04,S038,Moinhos de Vento,-30.0346,-51.216,Porto Alegre,412.43,30.19,34.94
2025-10-01 22:12:04,S039,Centro Histórico,-30.0277,-51.2287,Porto Alegre,399.81,19.55,51.9
2025-10-01 22:12:04,S040,Petrópolis,-30.0215,-51.2005,Porto Alegre,396.81,17.69,57.31
2025-10-01 22:12:04,S041,Cidade Baixa,-30.033,-51.224,Porto Alegre,518.29,65.35,62.67
2025-10-01 22:12:04,S042,Praia de Belas,-30.053,-51.212,Porto Alegre,416.61,20.03,40.1
2025-10-01 22:12:04,S043,Boa Vista,-3.0653,-60.025,Manaus,413.8,18.92,54.96
2025-10-01 22:12:04,S044,Centro,-3.119,-60.0217,Manaus,413.15,18.4,40.11
2025-10-01 22:12:04,S045,Aleixo,-3.1272,-60.005,Manaus,409.68,28.55,48.02
2025-10-01 22:12:04,S046,Centro,-1.455,-48.503,Belém,557.16,58.72,65.79
2025-10-01 22:12:04,S047,Reduto,-1.44,-48.502,Belém,384.98,16.2,34.38
2025-10-01 22:12:04,S048,Cidade Velha,-1.465,-48.492,Belém,395.62,28.49,48.15
2025-10-01 22:12:04,S049,Setor Oeste,-16.686,-49.262,Goiânia,399.96,18.72,44.54
2025-10-01 22:12:04,S050,Setor Bueno,-16.678,-49.255,Goiânia,403.94,20.03,35.67
2025-10-01 22:12:04,S051,Savassi,-19.935,-43.935,Belo Horizonte,389.11,26.85,49.46
