timestamp,station_id,station_name,latitude,longitude,city,CO2,PM2_5,O3
2025-10-01 22:11:49,S001,Centro,-22.9068,-43.1729,Rio de Janeiro,413.47,26.89,46.12
2025-10-01 22:11:49,S002,Copacabana,-22.9687,-43.1869,Rio de Janeiro,380.88,29.67,57.68
2025-10-01 22:11:49,S003,Tijuca,-22.9309,-43.2376,Rio de Janeiro,412.32,31.89,34.82
2025-10-01 22:11:49,S004,Nova Iguaçu,-22.7598,-43.4516,Rio de Janeiro,491.7,83.46,66.6
2025-10-01 22:11:49,S005,Botafogo,-22.9509,-43.1815,Rio de Janeiro,386.07,15.74,40.46
2025-10-01 22:11:49,S006,Leblon,-22.9831,-43.2227,Rio de Janeiro,419.95,30.24,47.3
2025-10-01 22:11:49,S007,Ipanema,-22.9839,-43.206,Rio de Janeiro,454.03,42.44,60.13
2025-10-01 22:11:49,S008,Barra da Tijuca,-23.0007,-43.3653,Rio de Janeiro,415.96,31.51,47.07
2025-10-01 22:11:49,S009,Lagoa,-22.9745,-43.2041,Rio de Janeiro,381.04,33.17,42.18
2025-10-01 22:11:49,S010,Jardim Paulista,-23.5711,-46.652,São Paulo,505.52,62.65,66.96
2025-10-01 22:11:49,S011,Vila Madalena,-23.5567,-46.6892,São Paulo,406.56,21.94,30.04
2025-10-01 22:11:49,S012,Pinheiros,-23.5675,-46.7016,São Paulo,382.54,34.15,47.27
2025-10-01 22:11:49,S013,Moema,-23.6008,-46.6739,São Paulo,418.2,25.43,53.19
2025-10-01 22:11:49,S014,Bela Vista,-23.5644,-46.6472,São Paulo,410.32,21.17,43.26
2025-10-01 22:11:49,S015,Itaim Bibi,-23.5845,-46.6812,São Paulo,382.18,22.28,33.97
2025-10-01 22:11:49,S016,Liberdade,-23.57,-46.632,São Paulo,474.27,55.14,71.66
2025-10-01 22:11:49,S017,Savassi,-19.9311,-43.9378,Belo Horizonte,399.2,18.15,44.62
2025-10-01 22:11:49,S018,Pampulha,-19.8513,-43.9586,Belo Horizonte,417.55,28.21,45.41
2025-10-01 22:11:49,S019,Funcionários,-19.9305,-43.9381,Belo Horizonte,411.17,19.97,50.54
2025-10-01 22:11:49,S020,Belvedere,-19.932,-43.957,Belo Horizonte,415.93,21.37,39.88
2025-10-01 22:11:49,S021,Asa Sul,-15.7974,-47.8825,Brasília,386.3,27.24,39.72
2025-10-01 22:11:49,S022,Asa Norte,-15.7747,-47.885,Brasília,380.48,21.08,30.38
2025-10-01 22:11:49,S023,Lago Sul,-15.825,-47.853,Brasília,402.77,34.68,55.29
2025-10-01 22:11:49,S024,Lago Norte,-15.763,-47.807,Brasília,391.32,18.48,37.51
2025-10-01 22:11:49,S025,Boa Viagem,-8.1125,-34.9036,Recife,398.86,29.98,37.95
2025-10-01 22:11:49,S026,Graças,-8.0526,-34.8944,Recife,386.13,19.51,35.13
2025-10-01 22:11:49,S027,Espinheiro,-8.049,-34.906,Recife,388.22,26.17,53.46
2025-10-01 22:11:49,S028,Meireles,-3.7295,-38.5216,Fortaleza,401.7,25.66,37.49
2025-10-01 22:11:49,S029,Aldeota,-3.7273,-38.519,Fortaleza,392.3,34.77,30.91
2025-10-01 22:11:49,S030,Praia de Iracema,-3.717,-38.536,Fortaleza,412.19,34.8,43.46
2025-10-01 22:11:49,S031,Centro Histórico,-12.9711,-38.51,Salvador,395.51,24.11,41.38
2025-10-01 22:11:49,S032,Barra,-12.981,-38.51,Salvador,391.29,20.22,30.39
2025-10-01 22:11:49,S033,Ondina,-12.9782,-38.503,Salvador,389.24,17.1,47.88
2025-10-01 22:11:49,S034,Batel,-25.4284,-49.2733,Curitiba,418.41,32.45,35.37
2025-10-01 22:11:49,S035,Centro,-25.4287,-49.2731,Curitiba,417.88,32.44,45.08
2025-10-01 22:11:49,S036,Água Verde,-25.448,-49.282,Curitiba,406.22,17.87,52.32
2025-10-01 22:11:49,S037,Cabral,-25.419,-49.269,Curitiba,387.01,16.68,53.87
2025-10-01 22:11:49,S038,Moinhos de Vento,-30.0346,-51.216,Porto Alegre,464.98,76.93,61.43
2025-10-01 22:11:49,S039,Centro Histórico,-30.0277,-51.2287,Porto Alegre,388.73,24.32,34.31
2025-10-01 22:11:49,S040,Petrópolis,-30.0215,-51.2005,Porto Alegre,417.53,31.68,50.78
2025-10-01 22:11:49,S041,Cidade Baixa,-30.033,-51.224,Porto Alegre,406.1,22.2,52.95
2025-10-01 22:11:49,S042,Praia de Belas,-30.053,-51.212,Porto Alegre,392.75,27.06,52.0
2025-10-01 22:11:49,S043,Boa Vista,-3.0653,-60.025,Manaus,399.25,29.88,36.71
2025-10-01 22:11:49,S044,Centro,-3.119,-60.0217,Manaus,523.76,65.83,61.67
2025-10-01 22:11:49,S045,Aleixo,-3.1272,-60.005,Manaus,534.31,48.76,68.88
2025-10-01 22:11:49,S046,Centro,-1.455,-48.503,Belém,413.92,31.63,33.93
2025-10-01 22:11:49,S047,Reduto,-1.44,-48.502,Belém,387.23,19.34,51.39
2025-10-01 22:11:49,S048,Cidade Velha,-1.465,-48.492,Belém,410.29,15.31,47.37
2025-10-01 22:11:49,S049,Setor Oeste,-16.686,-49.262,Goiânia,417.01,21.94,32.96
2025-10-01 22:11:49,S050,Setor Bueno,-16.678,-49.255,Goiânia,381.04,25.47,34.3
2025-10-01 22:11:49,S051,Savassi,-19.935,-43.935,Belo Horizonte,380.37,31.22,32.1
