timestamp,station_id,station_name,latitude,longitude,city,CO2,PM2_5,O3
2025-10-01 22:58:54,S001,Centro,-22.9068,-43.1729,Rio de Janeiro,395.99,19.86,43.55
2025-10-01 22:58:54,S002,Copacabana,-22.9687,-43.1869,Rio de Janeiro,383.97,29.58,53.74
2025-10-01 22:58:54,S003,Tijuca,-22.9309,-43.2376,Rio de Janeiro,388.21,23.24,49.28
2025-10-01 22:58:54,S004,Nova Iguaçu,-22.7598,-43.4516,Rio de Janeiro,383.85,16.45,34.28
2025-10-01 22:58:54,S005,Botafogo,-22.9509,-43.1815,Rio de Janeiro,418.74,34.45,57.63
2025-10-01 22:58:54,S006,Leblon,-22.9831,-43.2227,Rio de Janeiro,401.49,19.23,50.83
2025-10-01 22:58:54,S007,Ipanema,-22.9839,-43.206,Rio de Janeiro,386.82,25.17,42.32
2025-10-01 22:58:54,S008,Barra da Tijuca,-23.0007,-43.3653,Rio de Janeiro,388.57,33.66,46.59
2025-10-01 22:58:54,S009,Lagoa,-22.9745,-43.2041,Rio de Janeiro,383.92,18.1,38.82
2025-10-01 22:58:54,S010,Jardim Paulista,-23.5711,-46.652,São Paulo,397.26,24.8,45.29
2025-10-01 22:58:54,S011,Vila Madalena,-23.5567,-46.6892,São Paulo,486.84,75.65,55.74
2025-10-01 22:58:54,S012,Pinheiros,-23.5675,-46.7016,São Paulo,464.78,82.6,50.69
2025-10-01 22:58:54,S013,Moema,-23.6008,-46.6739,São Paulo,380.01,28.64,42.37
2025-10-01 22:58:54,S014,Bela Vista,-23.5644,-46.6472,São Paulo,403.39,16.44,43.28
2025-10-01 22:58:54,S015,Itaim Bibi,-23.5845,-46.6812,São Paulo,400.29,16.22,39.63
2025-10-01 22:58:54,S016,Liberdade,-23.57,-46.632,São Paulo,396.95,31.45,36.44
2025-10-01 22:58:54,S017,Savassi,-19.9311,-43.9378,Belo Horizonte,544.37,51.11,75.6
2025-10-01 22:58:54,S018,Pampulha,-19.8513,-43.9586,Belo Horizonte,413.39,30.01,58.13
2025-10-01 22:58:54,S019,Funcionários,-19.9305,-43.9381,Belo Horizonte,410.93,17.81,33.48
2025-10-01 22:58:54,S020,Belvedere,-19.932,-43.957,Belo Horizonte,389.94,23.63,43.61
2025-10-01 22:58:54,S021,Asa Sul,-15.7974,-47.8825,Brasília,383.02,28.0,56.06
2025-10-01 22:58:54,S022,Asa Norte,-15.7747,-47.885,Brasília,408.82,19.09,51.27
2025-10-01 22:58:54,S023,Lago Sul,-15.825,-47.853,Brasília,387.0,24.21,33.45
2025-10-01 22:58:54,S024,Lago Norte,-15.763,-47.807,Brasília,394.72,22.06,43.8
2025-10-01 22:58:54,S025,Boa Viagem,-8.1125,-34.9036,Recife,399.06,22.0,35.56
2025-10-01 22:58:54,S026,Graças,-8.0526,-34.8944,Recife,411.69,22.77,41.86
2025-10-01 22:58:54,S027,Espinheiro,-8.049,-34.906,Recife,413.37,26.8,49.92
2025-10-01 22:58:54,S028,Meireles,-3.7295,-38.5216,Fortaleza,407.85,19.88,48.1
2025-10-01 22:58:54,S029,Aldeota,-3.7273,-38.519,Fortaleza,390.73,22.7,45.39
2025-10-01 22:58:54,S030,Praia de Iracema,-3.717,-38.536,Fortaleza,392.69,19.63,42.34
2025-10-01 22:58:54,S031,Centro Histórico,-12.9711,-38.51,Salvador,437.65,60.68,61.53
2025-10-01 22:58:54,S032,Barra,-12.981,-38.51,Salvador,412.3,26.5,49.93
2025-10-01 22:58:54,S033,Ondina,-12.9782,-38.503,Salvador,402.86,32.63,48.12
2025-10-01 22:58:54,S034,Batel,-25.4284,-49.2733,Curitiba,398.01,21.89,58.76
2025-10-01 22:58:54,S035,Centro,-25.4287,-49.2731,Curitiba,407.29,24.79,50.22
2025-10-01 22:58:54,S036,Água Verde,-25.448,-49.282,Curitiba,461.25,81.12,62.38
2025-10-01 22:58:54,S037,Cabral,-25.419,-49.269,Curitiba,396.76,22.57,41.99
2025-10-01 22:58:54,S038,Moinhos de Vento,-30.0346,-51.216,Porto Alegre,419.2,20.51,51.85
2025-10-01 22:58:54,S039,Centro Histórico,-30.0277,-51.2287,Porto Alegre,394.45,26.15,41.86
2025-10-01 22:58:54,S040,Petrópolis,-30.0215,-51.2005,Porto Alegre,418.12,29.01,52.93
2025-10-01 22:58:54,S041,Cidade Baixa,-30.033,-51.224,Porto Alegre,400.23,30.7,48.91
2025-10-01 22:58:54,S042,Praia de Belas,-30.053,-51.212,Porto Alegre,412.15,33.29,40.98
2025-10-01 22:58:54,S043,Boa Vista,-3.0653,-60.025,Manaus,394.84,18.0,41.52
2025-10-01 22:58:54,S044,Centro,-3.119,-60.0217,Manaus,527.75,59.99,45.88
2025-10-01 22:58:54,S045,Aleixo,-3.1272,-60.005,Manaus,516.22,83.88,60.95
2025-10-01 22:58:54,S046,Centro,-1.455,-48.503,Belém,386.13,19.75,47.95
2025-10-01 22:58:54,S047,Reduto,-1.44,-48.502,Belém,387.98,34.22,57.44
2025-10-01 22:58:54,S048,Cidade Velha,-1.465,-48.492,Belém,408.38,34.6,38.74
2025-10-01 22:58:54,S049,Setor Oeste,-16.686,-49.262,Goiânia,403.71,33.15,42.07
2025-10-01 22:58:54,S050,Setor Bueno,-16.678,-49.255,Goiânia,387.02,15.6,41.11
2025-10-01 22:58:54,S051,Savassi,-19.935,-43.935,Belo Horizonte,416.2,30.21,42.35
