timestamp,station_id,station_name,latitude,longitude,city,CO2,PM2_5,O3
2025-10-01 22:56:46,RJ001,Centro,-22.9068,-43.1729,Rio de Janeiro,387.03,16.37,47.15
2025-10-01 22:56:46,RJ002,Copacabana,-22.9687,-43.1869,Rio de Janeiro,383.06,20.49,33.87
2025-10-01 22:56:46,RJ003,Tijuca,-22.9309,-43.2376,Rio de Janeiro,392.56,30.15,57.3
2025-10-01 22:56:46,RJ004,Nova Iguaçu,-22.7598,-43.4516,Nova Iguaçu,485.59,76.8,63.94
2025-10-01 22:56:46,RJ005,Niterói,-22.8832,-43.1034,Niterói,419.6,18.45,35.06
2025-10-01 22:56:46,RJ006,Petrópolis,-22.505,-43.1786,Petrópolis,504.01,48.88,45.65
2025-10-01 22:56:46,RJ007,Campos dos Goytacazes,-21.7622,-41.3181,Campos dos Goytacazes,411.16,21.84,41.67
2025-10-01 22:56:46,RJ008,Volta Redonda,-22.5202,-44.0996,Volta Redonda,407.64,31.7,45.2
2025-10-01 22:56:46,SP001,Paulista,-23.5614,-46.6559,São Paulo,404.47,26.11,52.17
2025-10-01 22:56:46,SP002,Pinheiros,-23.561,-46.7025,São Paulo,406.46,32.07,52.62
2025-10-01 22:56:46,SP003,Ibirapuera,-23.5874,-46.6576,São Paulo,410.68,33.99,42.8
2025-10-01 22:56:46,SP004,Campinas,-22.9099,-47.0626,Campinas,417.39,23.23,50.94
2025-10-01 22:56:46,SP005,Santos,-23.954,-46.3336,Santos,406.58,16.16,54.55
2025-10-01 22:56:46,SP006,São José dos Campos,-23.2237,-45.9009,São José dos Campos,389.35,19.79,53.08
2025-10-01 22:56:46,SP007,Sorocaba,-23.5015,-47.4526,Sorocaba,383.79,25.7,53.06
2025-10-01 22:56:46,SP008,Ribeirão Preto,-21.1786,-47.8066,Ribeirão Preto,419.71,23.2,32.92
2025-10-01 22:56:46,MG001,Savassi,-19.935,-43.9336,Belo Horizonte,384.82,24.56,52.93
2025-10-01 22:56:46,MG002,Pampulha,-19.8522,-43.9766,Belo Horizonte,534.02,84.76,52.47
2025-10-01 22:56:46,MG003,Uberlândia,-18.9188,-48.2768,Uberlândia,390.45,34.47,40.48
2025-10-01 22:56:46,MG004,Juiz de Fora,-21.7622,-43.3434,Juiz de Fora,419.86,31.91,52.76
2025-10-01 22:56:46,MG005,Montes Claros,-16.7282,-43.8578,Montes Claros,407.88,22.95,45.18
2025-10-01 22:56:46,MG006,Uberaba,-19.7477,-47.931,Uberaba,403.25,20.11,49.11
2025-10-01 22:56:46,MG007,Ouro Preto,-20.3856,-43.5036,Ouro Preto,397.25,17.82,48.62
2025-10-01 22:56:46,ES001,Vitória,-20.3155,-40.3128,Vitória,411.95,34.17,37.8
2025-10-01 22:56:46,ES002,Vila Velha,-20.3417,-40.2875,Vila Velha,397.02,29.14,30.92
2025-10-01 22:56:46,ES003,Serra,-20.1211,-40.3074,Serra,404.59,26.86,33.55
2025-10-01 22:56:46,ES004,Cariacica,-20.2637,-40.4165,Cariacica,550.61,56.9,65.08
2025-10-01 22:56:46,ES005,Guarapari,-20.6771,-40.5093,Guarapari,392.8,24.11,56.94
