timestamp,station_id,station_name,latitude,longitude,city,CO2,PM2_5,O3
2025-10-01 23:03:42,RJ001,Centro,-22.9068,-43.1729,Rio de Janeiro,411.04,27.09,37.43
2025-10-01 23:03:42,RJ002,Copacabana,-22.9687,-43.1869,Rio de Janeiro,380.99,28.32,42.91
2025-10-01 23:03:42,RJ003,Tijuca,-22.9309,-43.2376,Rio de Janeiro,381.17,29.92,40.42
2025-10-01 23:03:42,RJ004,Nova Iguaçu,-22.7598,-43.4516,Nova Iguaçu,381.54,31.51,32.59
2025-10-01 23:03:42,RJ005,Niterói,-22.8832,-43.1034,Niterói,400.34,31.41,48.13
2025-10-01 23:03:42,RJ006,Petrópolis,-22.505,-43.1786,Petrópolis,401.65,26.52,57.92
2025-10-01 23:03:42,RJ007,Campos dos Goytacazes,-21.7622,-41.3181,Campos dos Goytacazes,417.83,22.24,37.1
2025-10-01 23:03:42,RJ008,Volta Redonda,-22.5202,-44.0996,Volta Redonda,391.41,31.37,44.17
2025-10-01 23:03:42,SP001,Paulista,-23.5614,-46.6559,São Paulo,399.39,27.72,36.27
2025-10-01 23:03:42,SP002,Pinheiros,-23.561,-46.7025,São Paulo,489.07,63.09,49.7
2025-10-01 23:03:42,SP003,Ibirapuera,-23.5874,-46.6576,São Paulo,417.98,24.07,41.82
2025-10-01 23:03:42,SP004,Campinas,-22.9099,-47.0626,Campinas,393.95,34.75,57.17
2025-10-01 23:03:42,SP005,Santos,-23.954,-46.3336,Santos,396.92,30.2,38.74
2025-10-01 23:03:42,SP006,São José dos Campos,-23.2237,-45.9009,São José dos Campos,412.9,17.67,39.33
2025-10-01 23:03:42,SP007,Sorocaba,-23.5015,-47.4526,Sorocaba,450.72,48.81,63.54
2025-10-01 23:03:42,SP008,Ribeirão Preto,-21.1786,-47.8066,Ribeirão Preto,396.64,27.18,40.95
2025-10-01 23:03:42,MG001,Savassi,-19.935,-43.9336,Belo Horizonte,411.49,29.54,44.29
2025-10-01 23:03:42,MG002,Pampulha,-19.8522,-43.9766,Belo Horizonte,386.96,34.73,59.64
2025-10-01 23:03:42,MG003,Uberlândia,-18.9188,-48.2768,Uberlândia,419.51,33.06,31.96
2025-10-01 23:03:42,MG004,Juiz de Fora,-21.7622,-43.3434,Juiz de Fora,416.54,17.81,58.76
2025-10-01 23:03:42,MG005,Montes Claros,-16.7282,-43.8578,Montes Claros,417.47,16.82,48.16
2025-10-01 23:03:42,MG006,Uberaba,-19.7477,-47.931,Uberaba,407.77,15.34,32.54
2025-10-01 23:03:42,MG007,Ouro Preto,-20.3856,-43.5036,Ouro Preto,396.5,32.1,37.22
2025-10-01 23:03:42,ES001,Vitória,-20.3155,-40.3128,Vitória,406.36,30.66,56.9
2025-10-01 23:03:42,ES002,Vila Velha,-20.3417,-40.2875,Vila Velha,402.52,29.13,34.95
2025-10-01 23:03:42,ES003,Serra,-20.1211,-40.3074,Serra,415.31,26.89,37.04
2025-10-01 23:03:42,ES004,Cariacica,-20.2637,-40.4165,Cariacica,397.81,30.19,52.1
2025-10-01 23:03:42,ES005,Guarapari,-20.6771,-40.5093,Guarapari,384.44,29.75,43.24
