timestamp,station_id,station_name,latitude,longitude,city,CO2,PM2_5,O3
2025-10-01 23:04:42,RJ001,Centro,-22.9068,-43.1729,Rio de Janeiro,405.41,33.41,31.77
2025-10-01 23:04:42,RJ002,Copacabana,-22.9687,-43.1869,Rio de Janeiro,408.78,25.69,57.59
2025-10-01 23:04:42,RJ003,Tijuca,-22.9309,-43.2376,Rio de Janeiro,520.07,61.12,69.52
2025-10-01 23:04:42,RJ004,Nova Iguaçu,-22.7598,-43.4516,Nova Iguaçu,408.1,34.66,53.16
2025-10-01 23:04:42,RJ005,Niterói,-22.8832,-43.1034,Niterói,398.12,19.21,37.82
2025-10-01 23:04:42,RJ006,Petrópolis,-22.505,-43.1786,Petrópolis,385.23,26.7,54.15
2025-10-01 23:04:42,RJ007,Campos dos Goytacazes,-21.7622,-41.3181,Campos dos Goytacazes,406.53,24.18,41.6
2025-10-01 23:04:42,RJ008,Volta Redonda,-22.5202,-44.0996,Volta Redonda,383.42,21.39,41.51
2025-10-01 23:04:42,SP001,Paulista,-23.5614,-46.6559,São Paulo,397.36,15.1,58.77
2025-10-01 23:04:42,SP002,Pinheiros,-23.561,-46.7025,São Paulo,453.44,54.58,40.75
2025-10-01 23:04:42,SP003,Ibirapuera,-23.5874,-46.6576,São Paulo,390.21,22.85,32.29
2025-10-01 23:04:42,SP004,Campinas,-22.9099,-47.0626,Campinas,392.84,18.29,59.16
2025-10-01 23:04:42,SP005,Santos,-23.954,-46.3336,Santos,381.4,23.79,32.37
2025-10-01 23:04:42,SP006,São José dos Campos,-23.2237,-45.9009,São José dos Campos,398.1,18.04,36.83
2025-10-01 23:04:42,SP007,Sorocaba,-23.5015,-47.4526,Sorocaba,451.59,81.98,69.27
2025-10-01 23:04:42,SP008,Ribeirão Preto,-21.1786,-47.8066,Ribeirão Preto,381.9,24.96,44.21
2025-10-01 23:04:42,MG001,Savassi,-19.935,-43.9336,Belo Horizonte,419.87,19.14,59.18
2025-10-01 23:04:42,MG002,Pampulha,-19.8522,-43.9766,Belo Horizonte,413.38,29.32,44.6
2025-10-01 23:04:42,MG003,Uberlândia,-18.9188,-48.2768,Uberlândia,386.75,20.04,41.41
2025-10-01 23:04:42,MG004,Juiz de Fora,-21.7622,-43.3434,Juiz de Fora,414.38,21.31,43.4
2025-10-01 23:04:42,MG005,Montes Claros,-16.7282,-43.8578,Montes Claros,386.79,15.58,38.78
2025-10-01 23:04:42,MG006,Uberaba,-19.7477,-47.931,Uberaba,504.85,50.02,63.13
2025-10-01 23:04:42,MG007,Ouro Preto,-20.3856,-43.5036,Ouro Preto,404.99,24.12,46.92
2025-10-01 23:04:42,ES001,Vitória,-20.3155,-40.3128,Vitória,391.18,19.8,31.64
2025-10-01 23:04:42,ES002,Vila Velha,-20.3417,-40.2875,Vila Velha,404.63,18.12,35.55
2025-10-01 23:04:42,ES003,Serra,-20.1211,-40.3074,Serra,411.64,28.71,36.33
2025-10-01 23:04:42,ES004,Cariacica,-20.2637,-40.4165,Cariacica,415.3,27.44,53.23
2025-10-01 23:04:42,ES005,Guarapari,-20.6771,-40.5093,Guarapari,461.1,74.31,67.33
