timestamp,station_id,station_name,latitude,longitude,city,CO2,PM2_5,O3
2025-10-01 22:03:47,RJ001,Centro,-22.9068,-43.1729,Rio de Janeiro,393.29,16.19,32.78
2025-10-01 22:03:47,RJ002,Copacabana,-22.9687,-43.1869,Rio de Janeiro,394.51,18.82,56.64
2025-10-01 22:03:47,RJ003,Tijuca,-22.9309,-43.2376,Rio de Janeiro,386.73,17.11,48.9
2025-10-01 22:03:47,RJ004,Nova Iguaçu,-22.7598,-43.4516,Nova Iguaçu,382.09,24.68,44.41
2025-10-01 22:03:47,RJ005,Niterói,-22.8832,-43.1034,Niterói,419.71,17.61,32.79
2025-10-01 22:03:47,RJ006,Petrópolis,-22.505,-43.1786,Petrópolis,399.94,16.19,49.59
2025-10-01 22:03:47,RJ007,Campos dos Goytacazes,-21.7622,-41.3181,Campos dos Goytacazes,393.96,15.7,43.51
2025-10-01 22:03:47,RJ008,Volta Redonda,-22.5202,-44.0996,Volta Redonda,475.32,68.19,68.62
2025-10-01 22:03:47,SP001,Paulista,-23.5614,-46.6559,São Paulo,409.64,32.46,41.96
2025-10-01 22:03:47,SP002,Pinheiros,-23.561,-46.7025,São Paulo,387.72,34.58,39.36
2025-10-01 22:03:47,SP003,Ibirapuera,-23.5874,-46.6576,São Paulo,398.0,17.47,37.51
2025-10-01 22:03:47,SP004,Campinas,-22.9099,-47.0626,Campinas,397.4,17.03,50.86
2025-10-01 22:03:47,SP005,Santos,-23.954,-46.3336,Santos,505.81,41.82,51.74
2025-10-01 22:03:47,SP006,São José dos Campos,-23.2237,-45.9009,São José dos Campos,394.76,18.76,36.64
2025-10-01 22:03:47,SP007,Sorocaba,-23.5015,-47.4526,Sorocaba,414.19,18.83,55.28
2025-10-01 22:03:47,SP008,Ribeirão Preto,-21.1786,-47.8066,Ribeirão Preto,477.56,71.7,86.93
2025-10-01 22:03:47,MG001,Savassi,-19.935,-43.9336,Belo Horizonte,418.32,16.68,33.36
2025-10-01 22:03:47,MG002,Pampulha,-19.8522,-43.9766,Belo Horizonte,403.03,31.2,38.26
2025-10-01 22:03:47,MG003,Uberlândia,-18.9188,-48.2768,Uberlândia,388.58,29.24,45.25
2025-10-01 22:03:47,MG004,Juiz de Fora,-21.7622,-43.3434,Juiz de Fora,403.64,34.62,30.55
2025-10-01 22:03:47,MG005,Montes Claros,-16.7282,-43.8578,Montes Claros,406.22,22.06,49.06
2025-10-01 22:03:47,MG006,Uberaba,-19.7477,-47.931,Uberaba,478.48,70.12,54.23
2025-10-01 22:03:47,MG007,Ouro Preto,-20.3856,-43.5036,Ouro Preto,418.57,34.12,49.71
2025-10-01 22:03:47,ES001,Vitória,-20.3155,-40.3128,Vitória,394.06,25.27,46.66
2025-10-01 22:03:47,ES002,Vila Velha,-20.3417,-40.2875,Vila Velha,401.31,30.93,38.6
2025-10-01 22:03:47,ES003,Serra,-20.1211,-40.3074,Serra,413.92,19.76,32.19
2025-10-01 22:03:47,ES004,Cariacica,-20.2637,-40.4165,Cariacica,408.86,22.2,37.56
2025-10-01 22:03:47,ES005,Guarapari,-20.6771,-40.5093,Guarapari,397.02,26.44,30.64
