timestamp,station_id,station_name,latitude,longitude,city,CO2,PM2_5,O3
2025-10-01 23:06:32,S001,Centro,-22.9068,-43.1729,Rio de Janeiro,419.23,34.54,57.79
2025-10-01 23:06:32,S002,Copacabana,-22.9687,-43.1869,Rio de Janeiro,399.87,18.22,51.62
2025-10-01 23:06:32,S003,Tijuca,-22.9309,-43.2376,Rio de Janeiro,402.07,25.51,42.29
2025-10-01 23:06:32,S004,Nova Iguaçu,-22.7598,-43.4516,Rio de Janeiro,406.04,18.34,52.82
2025-10-01 23:06:32,S005,Botafogo,-22.9509,-43.1815,Rio de Janeiro,410.62,25.74,39.38
2025-10-01 23:06:32,S006,Leblon,-22.9831,-43.2227,Rio de Janeiro,392.99,29.1,32.27
2025-10-01 23:06:32,S007,Ipanema,-22.9839,-43.206,Rio de Janeiro,413.0,30.59,30.7
2025-10-01 23:06:32,S008,Barra da Tijuca,-23.0007,-43.3653,Rio de Janeiro,394.8,29.3,59.58
2025-10-01 23:06:32,S009,Lagoa,-22.9745,-43.2041,Rio de Janeiro,392.18,21.31,39.69
2025-10-01 23:06:32,S010,Jardim Paulista,-23.5711,-46.652,São Paulo,392.1,31.51,39.23
2025-10-01 23:06:32,S011,Vila Madalena,-23.5567,-46.6892,São Paulo,401.11,32.06,40.85
2025-10-01 23:06:32,S012,Pinheiros,-23.5675,-46.7016,São Paulo,395.53,25.51,40.62
2025-10-01 23:06:32,S013,Moema,-23.6008,-46.6739,São Paulo,412.97,33.95,47.36
2025-10-01 23:06:32,S014,Bela Vista,-23.5644,-46.6472,São Paulo,394.74,19.98,57.78
2025-10-01 23:06:32,S015,Itaim Bibi,-23.5845,-46.6812,São Paulo,404.33,28.74,39.94
2025-10-01 23:06:32,S016,Liberdade,-23.57,-46.632,São Paulo,416.8,23.26,55.94
2025-10-01 23:06:32,S017,Savassi,-19.9311,-43.9378,Belo Horizonte,418.1,18.88,35.48
2025-10-01 23:06:32,S018,Pampulha,-19.8513,-43.9586,Belo Horizonte,463.65,45.96,75.81
2025-10-01 23:06:32,S019,Funcionários,-19.9305,-43.9381,Belo Horizonte,391.62,24.43,45.27
2025-10-01 23:06:32,S020,Belvedere,-19.932,-43.957,Belo Horizonte,504.62,65.71,64.11
2025-10-01 23:06:32,S021,Asa Sul,-15.7974,-47.8825,Brasília,546.23,49.43,52.38
2025-10-01 23:06:32,S022,Asa Norte,-15.7747,-47.885,Brasília,496.89,70.54,61.41
2025-10-01 23:06:32,S023,Lago Sul,-15.825,-47.853,Brasília,401.97,30.91,51.29
2025-10-01 23:06:32,S024,Lago Norte,-15.763,-47.807,Brasília,394.2,26.8,47.74
2025-10-01 23:06:32,S025,Boa Viagem,-8.1125,-34.9036,Recife,415.88,28.47,50.65
2025-10-01 23:06:32,S026,Graças,-8.0526,-34.8944,Recife,419.63,25.62,56.0
2025-10-01 23:06:32,S027,Espinheiro,-8.049,-34.906,Recife,407.15,27.87,31.93
2025-10-01 23:06:32,S028,Meireles,-3.7295,-38.5216,Fortaleza,392.58,19.64,43.43
2025-10-01 23:06:32,S029,Aldeota,-3.7273,-38.519,Fortaleza,413.39,25.13,34.38
2025-10-01 23:06:32,S030,Praia de Iracema,-3.717,-38.536,Fortaleza,419.84,28.41,50.92
2025-10-01 23:06:32,S031,Centro Histórico,-12.9711,-38.51,Salvador,432.14,53.83,59.87
2025-10-01 23:06:32,S032,Barra,-12.981,-38.51,Salvador,403.02,27.56,48.1
2025-10-01 23:06:32,S033,Ondina,-12.9782,-38.503,Salvador,507.94,78.4,71.07
2025-10-01 23:06:32,S034,Batel,-25.4284,-49.2733,Curitiba,402.95,27.36,46.24
2025-10-01 23:06:32,S035,Centro,-25.4287,-49.2731,Curitiba,419.97,24.58,44.17
2025-10-01 23:06:32,S036,Água Verde,-25.448,-49.282,Curitiba,406.95,22.7,43.96
2025-10-01 23:06:32,S037,Cabral,-25.419,-49.269,Curitiba,414.33,29.27,50.14
2025-10-01 23:06:32,S038,Moinhos de Vento,-30.0346,-51.216,Porto Alegre,384.91,17.02,42.64
2025-10-01 23:06:32,S039,Centro Histórico,-30.0277,-51.2287,Porto Alegre,403.04,23.09,57.35
2025-10-01 23:06:32,S040,Petrópolis,-30.0215,-51.2005,Porto Alegre,386.57,28.21,33.97
2025-10-01 23:06:32,S041,Cidade Baixa,-30.033,-51.224,Porto Alegre,418.06,31.18,34.68
2025-10-01 23:06:32,S042,Praia de Belas,-30.053,-51.212,Porto Alegre,397.39,17.58,34.05
2025-10-01 23:06:32,S043,Boa Vista,-3.0653,-60.025,Manaus,398.44,18.9,58.75
2025-10-01 23:06:32,S044,Centro,-3.119,-60.0217,Manaus,385.72,15.62,55.8
2025-10-01 23:06:32,S045,Aleixo,-3.1272,-60.005,Manaus,392.96,16.1,52.45
2025-10-01 23:06:32,S046,Centro,-1.455,-48.503,Belém,388.94,30.7,31.31
2025-10-01 23:06:32,S047,Reduto,-1.44,-48.502,Belém,403.72,16.54,52.91
2025-10-01 23:06:32,S048,Cidade Velha,-1.465,-48.492,Belém,384.3,17.47,47.21
2025-10-01 23:06:32,S049,Setor Oeste,-16.686,-49.262,Goiânia,384.03,33.35,47.43
2025-10-01 23:06:32,S050,Setor Bueno,-16.678,-49.255,Goiânia,389.79,19.57,39.4
2025-10-01 23:06:32,S051,Savassi,-19.935,-43.935,Belo Horizonte,381.46,28.2,36.99
