timestamp,station_id,station_name,latitude,longitude,city,CO2,PM2_5,O3
2025-10-01 23:11:53,RJ001,Centro,-22.9068,-43.1729,Rio de Janeiro,383.34,18.88,37.99
2025-10-01 23:11:53,RJ002,Copacabana,-22.9687,-43.1869,Rio de Janeiro,404.17,29.06,46.62
2025-10-01 23:11:53,RJ003,Tijuca,-22.9309,-43.2376,Rio de Janeiro,412.37,32.31,49.52
2025-10-01 23:11:53,RJ004,Nova Iguaçu,-22.7598,-43.4516,Nova Iguaçu,411.01,24.11,48.95
2025-10-01 23:11:53,RJ005,Niterói,-22.8832,-43.1034,Niterói,415.92,29.6,49.34
2025-10-01 23:11:53,RJ006,Petrópolis,-22.505,-43.1786,Petrópolis,387.54,33.72,38.73
2025-10-01 23:11:53,RJ007,Campos dos Goytacazes,-21.7622,-41.3181,Campos dos Goytacazes,410.41,33.53,30.99
2025-10-01 23:11:53,RJ008,Volta Redonda,-22.5202,-44.0996,Volta Redonda,404.69,31.28,37.13
2025-10-01 23:11:53,SP001,Paulista,-23.5614,-46.6559,São Paulo,412.5,28.54,37.5
2025-10-01 23:11:53,SP002,Pinheiros,-23.561,-46.7025,São Paulo,404.27,17.41,43.23
2025-10-01 23:11:53,SP003,Ibirapuera,-23.5874,-46.6576,São Paulo,417.37,15.26,40.63
2025-10-01 23:11:53,SP004,Campinas,-22.9099,-47.0626,Campinas,416.91,34.75,50.47
2025-10-01 23:11:53,SP005,Santos,-23.954,-46.3336,Santos,380.76,16.79,51.46
2025-10-01 23:11:53,SP006,São José dos Campos,-23.2237,-45.9009,São José dos Campos,418.54,28.48,56.34
2025-10-01 23:11:53,SP007,Sorocaba,-23.5015,-47.4526,Sorocaba,514.35,73.33,53.15
2025-10-01 23:11:53,SP008,Ribeirão Preto,-21.1786,-47.8066,Ribeirão Preto,416.75,21.23,39.77
2025-10-01 23:11:53,MG001,Savassi,-19.935,-43.9336,Belo Horizonte,402.58,18.02,43.33
2025-10-01 23:11:53,MG002,Pampulha,-19.8522,-43.9766,Belo Horizonte,415.95,28.89,34.59
2025-10-01 23:11:53,MG003,Uberlândia,-18.9188,-48.2768,Uberlândia,382.09,32.81,53.5
2025-10-01 23:11:53,MG004,Juiz de Fora,-21.7622,-43.3434,Juiz de Fora,525.22,54.6,59.63
2025-10-01 23:11:53,MG005,Montes Claros,-16.7282,-43.8578,Montes Claros,401.34,30.06,54.16
2025-10-01 23:11:53,MG006,Uberaba,-19.7477,-47.931,Uberaba,406.9,24.01,45.64
2025-10-01 23:11:53,MG007,Ouro Preto,-20.3856,-43.5036,Ouro Preto,401.25,15.43,54.34
2025-10-01 23:11:53,ES001,Vitória,-20.3155,-40.3128,Vitória,395.98,33.69,43.71
2025-10-01 23:11:53,ES002,Vila Velha,-20.3417,-40.2875,Vila Velha,392.68,28.59,38.11
2025-10-01 23:11:53,ES003,Serra,-20.1211,-40.3074,Serra,381.92,32.14,56.76
2025-10-01 23:11:53,ES004,Cariacica,-20.2637,-40.4165,Cariacica,383.41,15.64,44.49
2025-10-01 23:11:53,ES005,Guarapari,-20.6771,-40.5093,Guarapari,488.51,52.19,63.77
