timestamp,station_id,station_name,latitude,longitude,city,CO2,PM2_5,O3
2025-10-01 22:57:03,S001,Centro,-22.9068,-43.1729,Rio de Janeiro,388.89,15.33,48.33
2025-10-01 22:57:03,S002,Copacabana,-22.9687,-43.1869,Rio de Janeiro,407.38,18.6,46.98
2025-10-01 22:57:03,S003,Tijuca,-22.9309,-43.2376,Rio de Janeiro,388.58,15.51,52.98
2025-10-01 22:57:03,S004,Nova Iguaçu,-22.7598,-43.4516,Rio de Janeiro,397.66,20.69,30.27
2025-10-01 22:57:03,S005,Botafogo,-22.9509,-43.1815,Rio de Janeiro,414.69,20.03,44.76
2025-10-01 22:57:03,S006,Leblon,-22.9831,-43.2227,Rio de Janeiro,412.75,31.16,46.17
2025-10-01 22:57:03,S007,Ipanema,-22.9839,-43.206,Rio de Janeiro,400.51,34.72,47.99
2025-10-01 22:57:03,S008,Barra da Tijuca,-23.0007,-43.3653,Rio de Janeiro,393.02,28.2,54.29
2025-10-01 22:57:03,S009,Lagoa,-22.9745,-43.2041,Rio de Janeiro,410.76,34.74,49.37
2025-10-01 22:57:03,S010,Jardim Paulista,-23.5711,-46.652,São Paulo,381.51,29.01,44.66
2025-10-01 22:57:03,S011,Vila Madalena,-23.5567,-46.6892,São Paulo,403.31,34.38,55.18
2025-10-01 22:57:03,S012,Pinheiros,-23.5675,-46.7016,São Paulo,395.67,15.96,38.11
2025-10-01 22:57:03,S013,Moema,-23.6008,-46.6739,São Paulo,401.22,25.77,55.04
2025-10-01 22:57:03,S014,Bela Vista,-23.5644,-46.6472,São Paulo,398.06,27.57,50.82
2025-10-01 22:57:03,S015,Itaim Bibi,-23.5845,-46.6812,São Paulo,396.41,25.84,42.92
2025-10-01 22:57:03,S016,Liberdade,-23.57,-46.632,São Paulo,386.67,16.65,59.36
2025-10-01 22:57:03,S017,Savassi,-19.9311,-43.9378,Belo Horizonte,418.94,27.82,55.89
2025-10-01 22:57:03,S018,Pampulha,-19.8513,-43.9586,Belo Horizonte,385.14,16.96,45.49
2025-10-01 22:57:03,S019,Funcionários,-19.9305,-43.9381,Belo Horizonte,390.55,23.18,57.6
2025-10-01 22:57:03,S020,Belvedere,-19.932,-43.957,Belo Horizonte,382.07,30.51,53.71
2025-10-01 22:57:03,S021,Asa Sul,-15.7974,-47.8825,Brasília,399.5,34.35,58.97
2025-10-01 22:57:03,S022,Asa Norte,-15.7747,-47.885,Brasília,383.2,16.38,36.1
2025-10-01 22:57:03,S023,Lago Sul,-15.825,-47.853,Brasília,385.3,32.29,36.75
2025-10-01 22:57:03,S024,Lago Norte,-15.763,-47.807,Brasília,406.81,33.7,58.1
2025-10-01 22:57:03,S025,Boa Viagem,-8.1125,-34.9036,Recife,404.68,17.65,45.16
2025-10-01 22:57:03,S026,Graças,-8.0526,-34.8944,Recife,525.51,73.19,63.84
2025-10-01 22:57:03,S027,Espinheiro,-8.049,-34.906,Recife,387.81,29.09,45.67
2025-10-01 22:57:03,S028,Meireles,-3.7295,-38.5216,Fortaleza,406.98,25.22,35.12
2025-10-01 22:57:03,S029,Aldeota,-3.7273,-38.519,Fortaleza,506.63,80.7,59.16
2025-10-01 22:57:03,S030,Praia de Iracema,-3.717,-38.536,Fortaleza,416.25,34.73,43.3
2025-10-01 22:57:03,S031,Centro Histórico,-12.9711,-38.51,Salvador,389.08,34.86,35.27
2025-10-01 22:57:03,S032,Barra,-12.981,-38.51,Salvador,411.75,26.13,31.12
2025-10-01 22:57:03,S033,Ondina,-12.9782,-38.503,Salvador,418.5,16.21,30.14
2025-10-01 22:57:03,S034,Batel,-25.4284,-49.2733,Curitiba,395.45,28.71,54.14
2025-10-01 22:57:03,S035,Centro,-25.4287,-49.2731,Curitiba,392.35,20.89,31.98
2025-10-01 22:57:03,S036,Água Verde,-25.448,-49.282,Curitiba,419.75,23.53,43.18
2025-10-01 22:57:03,S037,Cabral,-25.419,-49.269,Curitiba,416.71,31.41,37.58
2025-10-01 22:57:03,S038,Moinhos de Vento,-30.0346,-51.216,Porto Alegre,411.7,18.51,39.4
2025-10-01 22:57:03,S039,Centro Histórico,-30.0277,-51.2287,Porto Alegre,408.1,16.57,42.07
2025-10-01 22:57:03,S040,Petrópolis,-30.0215,-51.2005,Porto Alegre,388.56,28.92,57.06
2025-10-01 22:57:03,S041,Cidade Baixa,-30.033,-51.224,Porto Alegre,394.52,34.12,56.41
2025-10-01 22:57:03,S042,Praia de Belas,-30.053,-51.212,Porto Alegre,478.83,82.26,66.99
2025-10-01 22:57:03,S043,Boa Vista,-3.0653,-60.025,Manaus,402.67,23.8,44.0
2025-10-01 22:57:03,S044,Centro,-3.119,-60.0217,Manaus,408.23,32.1,31.81
2025-10-01 22:57:03,S045,Aleixo,-3.1272,-60.005,Manaus,399.46,26.37,44.36
2025-10-01 22:57:03,S046,Centro,-1.455,-48.503,Belém,516.62,59.49,83.65
2025-10-01 22:57:03,S047,Reduto,-1.44,-48.502,Belém,412.17,26.78,34.4
2025-10-01 22:57:03,S048,Cidade Velha,-1.465,-48.492,Belém,418.04,20.0,30.33
2025-10-01 22:57:03,S049,Setor Oeste,-16.686,-49.262,Goiânia,415.15,16.97,41.49
2025-10-01 22:57:03,S050,Setor Bueno,-16.678,-49.255,Goiânia,409.87,18.32,59.24
2025-10-01 22:57:03,S051,Savassi,-19.935,-43.935,Belo Horizonte,522.34,67.66,70.24
