timestamp,station_id,station_name,latitude,longitude,city,CO2,PM2_5,O3
2025-10-01 21:58:28,S001,Centro,-22.9068,-43.1729,Rio de Janeiro,413.19,30.02,32.15
2025-10-01 21:58:28,S002,Copacabana,-22.9687,-43.1869,Rio de Janeiro,385.0,23.99,51.46
2025-10-01 21:58:28,S003,Tijuca,-22.9309,-43.2376,Rio de Janeiro,384.55,19.07,39.1
2025-10-01 21:58:28,S004,Nova Iguaçu,-22.7598,-43.4516,Rio de Janeiro,382.79,34.53,58.44
2025-10-01 21:58:28,S005,Botafogo,-22.9509,-43.1815,Rio de Janeiro,406.02,23.72,38.16
2025-10-01 21:58:28,S006,Leblon,-22.9831,-43.2227,Rio de Janeiro,405.34,30.52,31.98
2025-10-01 21:58:28,S007,Ipanema,-22.9839,-43.206,Rio de Janeiro,413.63,15.89,57.7
2025-10-01 21:58:28,S008,Barra da Tijuca,-23.0007,-43.3653,Rio de Janeiro,389.53,22.77,51.95
2025-10-01 21:58:28,S009,Lagoa,-22.9745,-43.2041,Rio de Janeiro,400.84,18.23,55.68
2025-10-01 21:58:28,S010,Jardim Paulista,-23.5711,-46.652,São Paulo,407.86,15.62,56.58
2025-10-01 21:58:28,S011,Vila Madalena,-23.5567,-46.6892,São Paulo,387.77,27.18,30.87
2025-10-01 21:58:28,S012,Pinheiros,-23.5675,-46.7016,São Paulo,404.48,31.32,48.51
2025-10-01 21:58:28,S013,Moema,-23.6008,-46.6739,São Paulo,419.46,27.04,50.39
2025-10-01 21:58:28,S014,Bela Vista,-23.5644,-46.6472,São Paulo,415.0,30.49,42.99
2025-10-01 21:58:28,S015,Itaim Bibi,-23.5845,-46.6812,São Paulo,393.2,27.14,42.46
2025-10-01 21:58:28,S016,Liberdade,-23.57,-46.632,São Paulo,407.11,33.8,45.67
2025-10-01 21:58:28,S017,Savassi,-19.9311,-43.9378,Belo Horizonte,385.01,26.56,35.48
2025-10-01 21:58:28,S018,Pampulha,-19.8513,-43.9586,Belo Horizonte,387.32,29.05,32.35
2025-10-01 21:58:28,S019,Funcionários,-19.9305,-43.9381,Belo Horizonte,462.32,70.18,62.27
2025-10-01 21:58:28,S020,Belvedere,-19.932,-43.957,Belo Horizonte,382.85,25.91,51.29
2025-10-01 21:58:28,S021,Asa Sul,-15.7974,-47.8825,Brasília,397.52,29.64,57.45
2025-10-01 21:58:28,S022,Asa Norte,-15.7747,-47.885,Brasília,395.19,28.18,44.06
2025-10-01 21:58:28,S023,Lago Sul,-15.825,-47.853,Brasília,408.32,19.08,48.84
2025-10-01 21:58:28,S024,Lago Norte,-15.763,-47.807,Brasília,402.79,15.24,39.5
2025-10-01 21:58:28,S025,Boa Viagem,-8.1125,-34.9036,Recife,407.06,32.33,53.5
2025-10-01 21:58:28,S026,Graças,-8.0526,-34.8944,Recife,555.32,59.96,77.71
2025-10-01 21:58:28,S027,Espinheiro,-8.049,-34.906,Recife,393.43,32.17,45.97
2025-10-01 21:58:28,S028,Meireles,-3.7295,-38.5216,Fortaleza,401.97,19.23,54.41
2025-10-01 21:58:28,S029,Aldeota,-3.7273,-38.519,Fortaleza,400.16,23.69,38.1
2025-10-01 21:58:28,S030,Praia de Iracema,-3.717,-38.536,Fortaleza,478.15,75.19,53.22
2025-10-01 21:58:28,S031,Centro Histórico,-12.9711,-38.51,Salvador,419.53,29.2,40.04
2025-10-01 21:58:28,S032,Barra,-12.981,-38.51,Salvador,400.0,17.67,32.73
2025-10-01 21:58:28,S033,Ondina,-12.9782,-38.503,Salvador,524.51,38.07,66.01
2025-10-01 21:58:28,S034,Batel,-25.4284,-49.2733,Curitiba,405.43,26.72,59.38
2025-10-01 21:58:28,S035,Centro,-25.4287,-49.2731,Curitiba,402.04,20.08,46.96
2025-10-01 21:58:28,S036,Água Verde,-25.448,-49.282,Curitiba,394.09,22.71,47.39
2025-10-01 21:58:28,S037,Cabral,-25.419,-49.269,Curitiba,409.43,34.44,32.27
2025-10-01 21:58:28,S038,Moinhos de Vento,-30.0346,-51.216,Porto Alegre,381.21,25.82,55.89
2025-10-01 21:58:28,S039,Centro Histórico,-30.0277,-51.2287,Porto Alegre,418.67,29.55,33.77
2025-10-01 21:58:28,S040,Petrópolis,-30.0215,-51.2005,Porto Alegre,387.42,31.14,47.23
2025-10-01 21:58:28,S041,Cidade Baixa,-30.033,-51.224,Porto Alegre,401.21,25.19,45.79
2025-10-01 21:58:28,S042,Praia de Belas,-30.053,-51.212,Porto Alegre,385.29,22.4,54.13
2025-10-01 21:58:28,S043,Boa Vista,-3.0653,-60.025,Manaus,400.6,27.53,30.38
2025-10-01 21:58:28,S044,Centro,-3.119,-60.0217,Manaus,413.62,15.12,59.44
2025-10-01 21:58:28,S045,Aleixo,-3.1272,-60.005,Manaus,393.48,16.98,35.7
2025-10-01 21:58:28,S046,Centro,-1.455,-48.503,Belém,397.49,32.07,46.49
2025-10-01 21:58:28,S047,Reduto,-1.44,-48.502,Belém,385.09,29.54,30.87
2025-10-01 21:58:28,S048,Cidade Velha,-1.465,-48.492,Belém,411.52,32.46,52.78
2025-10-01 21:58:28,S049,Setor Oeste,-16.686,-49.262,Goiânia,387.79,29.84,41.2
2025-10-01 21:58:28,S050,Setor Bueno,-16.678,-49.255,Goiânia,391.31,21.8,34.94
2025-10-01 21:58:28,S051,Savassi,-19.935,-43.935,Belo Horizonte,414.82,27.56,49.04
