timestamp,station_id,station_name,latitude,longitude,city,CO2,PM2_5,O3
2025-10-01 23:03:39,S001,Centro,-22.9068,-43.1729,Rio de Janeiro,403.9,16.29,59.06
2025-10-01 23:03:39,S002,Copacabana,-22.9687,-43.1869,Rio de Janeiro,414.98,26.15,35.27
2025-10-01 23:03:39,S003,Tijuca,-22.9309,-43.2376,Rio de Janeiro,416.38,33.23,49.14
2025-10-01 23:03:39,S004,Nova Iguaçu,-22.7598,-43.4516,Rio de Janeiro,391.41,29.13,56.61
2025-10-01 23:03:39,S005,Botafogo,-22.9509,-43.1815,Rio de Janeiro,407.26,29.78,34.13
2025-10-01 23:03:39,S006,Leblon,-22.9831,-43.2227,Rio de Janeiro,520.64,89.11,61.78
2025-10-01 23:03:39,S007,Ipanema,-22.9839,-43.206,Rio de Janeiro,417.31,21.55,39.53
2025-10-01 23:03:39,S008,Barra da Tijuca,-23.0007,-43.3653,Rio de Janeiro,416.0,21.22,36.77
2025-10-01 23:03:39,S009,Lagoa,-22.9745,-43.2041,Rio de Janeiro,384.2,34.89,30.75
2025-10-01 23:03:39,S010,Jardim Paulista,-23.5711,-46.652,São Paulo,458.49,74.67,58.84
2025-10-01 23:03:39,S011,Vila Madalena,-23.5567,-46.6892,São Paulo,391.29,27.81,36.54
2025-10-01 23:03:39,S012,Pinheiros,-23.5675,-46.7016,São Paulo,415.01,30.96,36.72
2025-10-01 23:03:39,S013,Moema,-23.6008,-46.6739,São Paulo,407.91,20.04,40.05
2025-10-01 23:03:39,S014,Bela Vista,-23.5644,-46.6472,São Paulo,395.03,20.04,43.11
2025-10-01 23:03:39,S015,Itaim Bibi,-23.5845,-46.6812,São Paulo,388.29,24.5,36.48
2025-10-01 23:03:39,S016,Liberdade,-23.57,-46.632,São Paulo,391.62,21.7,49.73
2025-10-01 23:03:39,S017,Savassi,-19.9311,-43.9378,Belo Horizonte,403.35,32.68,33.76
2025-10-01 23:03:39,S018,Pampulha,-19.8513,-43.9586,Belo Horizonte,413.3,28.48,59.32
2025-10-01 23:03:39,S019,Funcionários,-19.9305,-43.9381,Belo Horizonte,398.43,17.76,33.23
2025-10-01 23:03:39,S020,Belvedere,-19.932,-43.957,Belo Horizonte,409.04,26.45,56.09
2025-10-01 23:03:39,S021,Asa Sul,-15.7974,-47.8825,Brasília,397.76,31.08,52.6
2025-10-01 23:03:39,S022,Asa Norte,-15.7747,-47.885,Brasília,411.06,33.5,44.81
2025-10-01 23:03:39,S023,Lago Sul,-15.825,-47.853,Brasília,396.61,31.16,45.32
2025-10-01 23:03:39,S024,Lago Norte,-15.763,-47.807,Brasília,399.65,29.91,35.83
2025-10-01 23:03:39,S025,Boa Viagem,-8.1125,-34.9036,Recife,408.58,27.44,50.73
2025-10-01 23:03:39,S026,Graças,-8.0526,-34.8944,Recife,415.87,29.06,48.08
2025-10-01 23:03:39,S027,Espinheiro,-8.049,-34.906,Recife,389.82,19.33,31.57
2025-10-01 23:03:39,S028,Meireles,-3.7295,-38.5216,Fortaleza,381.73,28.0,48.79
2025-10-01 23:03:39,S029,Aldeota,-3.7273,-38.519,Fortaleza,403.41,17.13,31.19
2025-10-01 23:03:39,S030,Praia de Iracema,-3.717,-38.536,Fortaleza,533.64,67.0,55.04
2025-10-01 23:03:39,S031,Centro Histórico,-12.9711,-38.51,Salvador,385.72,28.43,57.81
2025-10-01 23:03:39,S032,Barra,-12.981,-38.51,Salvador,417.51,22.25,33.81
2025-10-01 23:03:39,S033,Ondina,-12.9782,-38.503,Salvador,417.22,33.06,51.36
2025-10-01 23:03:39,S034,Batel,-25.4284,-49.2733,Curitiba,412.86,31.91,43.8
2025-10-01 23:03:39,S035,Centro,-25.4287,-49.2731,Curitiba,531.5,60.08,76.54
2025-10-01 23:03:39,S036,Água Verde,-25.448,-49.282,Curitiba,390.38,31.17,32.67
2025-10-01 23:03:39,S037,Cabral,-25.419,-49.269,Curitiba,414.53,33.93,50.82
2025-10-01 23:03:39,S038,Moinhos de Vento,-30.0346,-51.216,Porto Alegre,390.66,20.76,52.1
2025-10-01 23:03:39,S039,Centro Histórico,-30.0277,-51.2287,Porto Alegre,413.5,19.4,32.79
2025-10-01 23:03:39,S040,Petrópolis,-30.0215,-51.2005,Porto Alegre,399.27,18.32,41.85
2025-10-01 23:03:39,S041,Cidade Baixa,-30.033,-51.224,Porto Alegre,395.53,25.92,47.36
2025-10-01 23:03:39,S042,Praia de Belas,-30.053,-51.212,Porto Alegre,382.63,16.72,49.34
2025-10-01 23:03:39,S043,Boa Vista,-3.0653,-60.025,Manaus,398.81,33.55,30.29
2025-10-01 23:03:39,S044,Centro,-3.119,-60.0217,Manaus,383.35,30.54,48.88
2025-10-01 23:03:39,S045,Aleixo,-3.1272,-60.005,Manaus,412.43,31.25,38.69
2025-10-01 23:03:39,S046,Centro,-1.455,-48.503,Belém,409.98,22.77,54.5
2025-10-01 23:03:39,S047,Reduto,-1.44,-48.502,Belém,380.71,31.66,55.07
2025-10-01 23:03:39,S048,Cidade Velha,-1.465,-48.492,Belém,414.8,33.15,37.77
2025-10-01 23:03:39,S049,Setor Oeste,-16.686,-49.262,Goiânia,397.38,26.45,43.73
2025-10-01 23:03:39,S050,Setor Bueno,-16.678,-49.255,Goiânia,390.48,17.97,35.04
2025-10-01 23:03:39,S051,Savassi,-19.935,-43.935,Belo Horizonte,395.37,28.19,34.5
