timestamp,station_id,station_name,latitude,longitude,city,CO2,PM2_5,O3
2025-10-01 23:04:05,S001,Centro,-22.9068,-43.1729,Rio de Janeiro,391.03,33.65,35.37
2025-10-01 23:04:05,S002,Copacabana,-22.9687,-43.1869,Rio de Janeiro,391.95,34.05,33.11
2025-10-01 23:04:05,S003,Tijuca,-22.9309,-43.2376,Rio de Janeiro,412.47,22.37,49.38
2025-10-01 23:04:05,S004,Nova Iguaçu,-22.7598,-43.4516,Rio de Janeiro,403.73,16.15,35.66
2025-10-01 23:04:05,S005,Botafogo,-22.9509,-43.1815,Rio de Janeiro,404.94,33.24,51.92
2025-10-01 23:04:05,S006,Leblon,-22.9831,-43.2227,Rio de Janeiro,391.91,28.32,59.48
2025-10-01 23:04:05,S007,Ipanema,-22.9839,-43.206,Rio de Janeiro,413.37,17.39,51.82
2025-10-01 23:04:05,S008,Barra da Tijuca,-23.0007,-43.3653,Rio de Janeiro,399.81,20.06,57.32
2025-10-01 23:04:05,S009,Lagoa,-22.9745,-43.2041,Rio de Janeiro,477.41,75.86,78.04
2025-10-01 23:04:05,S010,Jardim Paulista,-23.5711,-46.652,São Paulo,523.1,62.89,68.66
2025-10-01 23:04:05,S011,Vila Madalena,-23.5567,-46.6892,São Paulo,397.4,16.63,44.41
2025-10-01 23:04:05,S012,Pinheiros,-23.5675,-46.7016,São Paulo,391.18,24.64,49.75
2025-10-01 23:04:05,S013,Moema,-23.6008,-46.6739,São Paulo,406.51,23.87,44.17
2025-10-01 23:04:05,S014,Bela Vista,-23.5644,-46.6472,São Paulo,409.6,24.42,47.7
2025-10-01 23:04:05,S015,Itaim Bibi,-23.5845,-46.6812,São Paulo,397.01,23.2,46.56
2025-10-01 23:04:05,S016,Liberdade,-23.57,-46.632,São Paulo,406.75,30.18,50.1
2025-10-01 23:04:05,S017,Savassi,-19.9311,-43.9378,Belo Horizonte,406.81,30.05,49.24
2025-10-01 23:04:05,S018,Pampulha,-19.8513,-43.9586,Belo Horizonte,394.64,26.64,55.52
2025-10-01 23:04:05,S019,Funcionários,-19.9305,-43.9381,Belo Horizonte,400.19,29.74,56.95
2025-10-01 23:04:05,S020,Belvedere,-19.932,-43.957,Belo Horizonte,394.03,22.84,41.46
2025-10-01 23:04:05,S021,Asa Sul,-15.7974,-47.8825,Brasília,406.76,21.0,52.81
2025-10-01 23:04:05,S022,Asa Norte,-15.7747,-47.885,Brasília,386.64,33.85,57.04
2025-10-01 23:04:05,S023,Lago Sul,-15.825,-47.853,Brasília,386.87,25.76,55.25
2025-10-01 23:04:05,S024,Lago Norte,-15.763,-47.807,Brasília,381.68,15.43,59.74
2025-10-01 23:04:05,S025,Boa Viagem,-8.1125,-34.9036,Recife,419.9,23.9,58.64
2025-10-01 23:04:05,S026,Graças,-8.0526,-34.8944,Recife,384.04,27.0,58.26
2025-10-01 23:04:05,S027,Espinheiro,-8.049,-34.906,Recife,404.04,31.24,45.09
2025-10-01 23:04:05,S028,Meireles,-3.7295,-38.5216,Fortaleza,404.9,28.63,49.32
2025-10-01 23:04:05,S029,Aldeota,-3.7273,-38.519,Fortaleza,399.51,22.35,50.53
2025-10-01 23:04:05,S030,Praia de Iracema,-3.717,-38.536,Fortaleza,407.84,17.62,55.37
2025-10-01 23:04:05,S031,Centro Histórico,-12.9711,-38.51,Salvador,403.57,16.72,49.18
2025-10-01 23:04:05,S032,Barra,-12.981,-38.51,Salvador,396.03,24.07,38.27
2025-10-01 23:04:05,S033,Ondina,-12.9782,-38.503,Salvador,399.12,17.16,51.74
2025-10-01 23:04:05,S034,Batel,-25.4284,-49.2733,Curitiba,383.1,30.37,49.6
2025-10-01 23:04:05,S035,Centro,-25.4287,-49.2731,Curitiba,395.06,29.44,42.79
2025-10-01 23:04:05,S036,Água Verde,-25.448,-49.282,Curitiba,412.58,31.6,43.58
2025-10-01 23:04:05,S037,Cabral,-25.419,-49.269,Curitiba,401.18,15.66,44.36
2025-10-01 23:04:05,S038,Moinhos de Vento,-30.0346,-51.216,Porto Alegre,393.57,25.55,38.41
2025-10-01 23:04:05,S039,Centro Histórico,-30.0277,-51.2287,Porto Alegre,395.52,27.32,50.24
2025-10-01 23:04:05,S040,Petrópolis,-30.0215,-51.2005,Porto Alegre,384.01,19.3,49.0
2025-10-01 23:04:05,S041,Cidade Baixa,-30.033,-51.224,Porto Alegre,454.74,76.64,58.04
2025-10-01 23:04:05,S042,Praia de Belas,-30.053,-51.212,Porto Alegre,394.01,15.69,38.94
2025-10-01 23:04:05,S043,Boa Vista,-3.0653,-60.025,Manaus,453.45,83.85,68.34
2025-10-01 23:04:05,S044,Centro,-3.119,-60.0217,Manaus,395.54,21.63,47.5
2025-10-01 23:04:05,S045,Aleixo,-3.1272,-60.005,Manaus,385.22,21.28,51.24
2025-10-01 23:04:05,S046,Centro,-1.455,-48.503,Belém,399.83,27.45,41.51
2025-10-01 23:04:05,S047,Reduto,-1.44,-48.502,Belém,411.4,25.68,43.26
2025-10-01 23:04:05,S048,Cidade Velha,-1.465,-48.492,Belém,393.07,31.44,31.61
2025-10-01 23:04:05,S049,Setor Oeste,-16.686,-49.262,Goiânia,385.59,17.66,56.7
2025-10-01 23:04:05,S050,Setor Bueno,-16.678,-49.255,Goiânia,383.68,23.92,38.19
2025-10-01 23:04:05,S051,Savassi,-19.935,-43.935,Belo Horizonte,397.79,22.41,42.27
