timestamp,station_id,station_name,latitude,longitude,city,CO2,PM2_5,O3
2025-10-01 22:10:00,S001,Centro,-22.9068,-43.1729,Rio de Janeiro,382.92,31.08,58.97
2025-10-01 22:10:00,S002,Copacabana,-22.9687,-43.1869,Rio de Janeiro,384.68,18.94,36.6
2025-10-01 22:10:00,S003,Tijuca,-22.9309,-43.2376,Rio de Janeiro,415.38,24.28,41.87
2025-10-01 22:10:00,S004,Nova Iguaçu,-22.7598,-43.4516,Rio de Janeiro,406.97,21.52,38.27
2025-10-01 22:10:00,S005,Botafogo,-22.9509,-43.1815,Rio de Janeiro,383.04,20.77,39.55
2025-10-01 22:10:00,S006,Leblon,-22.9831,-43.2227,Rio de Janeiro,387.45,21.9,40.2
2025-10-01 22:10:00,S007,Ipanema,-22.9839,-43.206,Rio de Janeiro,415.96,16.09,33.58
2025-10-01 22:10:00,S008,Barra da Tijuca,-23.0007,-43.3653,Rio de Janeiro,401.12,16.47,38.3
2025-10-01 22:10:00,S009,Lagoa,-22.9745,-43.2041,Rio de Janeiro,406.04,24.64,35.15
2025-10-01 22:10:00,S010,Jardim Paulista,-23.5711,-46.652,São Paulo,401.85,31.13,58.78
2025-10-01 22:10:00,S011,Vila Madalena,-23.5567,-46.6892,São Paulo,407.95,31.95,43.97
2025-10-01 22:10:00,S012,Pinheiros,-23.5675,-46.7016,São Paulo,400.37,15.23,36.56
2025-10-01 22:10:00,S013,Moema,-23.6008,-46.6739,São Paulo,409.76,26.32,38.64
2025-10-01 22:10:00,S014,Bela Vista,-23.5644,-46.6472,São Paulo,405.79,29.67,45.94
2025-10-01 22:10:00,S015,Itaim Bibi,-23.5845,-46.6812,São Paulo,404.97,28.09,33.25
2025-10-01 22:10:00,S016,Liberdade,-23.57,-46.632,São Paulo,402.01,23.34,52.63
2025-10-01 22:10:00,S017,Savassi,-19.9311,-43.9378,Belo Horizonte,388.86,23.27,42.74
2025-10-01 22:10:00,S018,Pampulha,-19.8513,-43.9586,Belo Horizonte,415.08,30.92,39.62
2025-10-01 22:10:00,S019,Funcionários,-19.9305,-43.9381,Belo Horizonte,492.7,75.51,61.12
2025-10-01 22:10:00,S020,Belvedere,-19.932,-43.957,Belo Horizonte,408.34,19.33,54.08
2025-10-01 22:10:00,S021,Asa Sul,-15.7974,-47.8825,Brasília,381.79,25.84,39.44
2025-10-01 22:10:00,S022,Asa Norte,-15.7747,-47.885,Brasília,510.02,91.21,63.65
2025-10-01 22:10:00,S023,Lago Sul,-15.825,-47.853,Brasília,411.34,29.31,42.26
2025-10-01 22:10:00,S024,Lago Norte,-15.763,-47.807,Brasília,474.59,56.9,57.3
2025-10-01 22:10:00,S025,Boa Viagem,-8.1125,-34.9036,Recife,413.2,17.62,48.91
2025-10-01 22:10:00,S026,Graças,-8.0526,-34.8944,Recife,398.17,20.02,31.95
2025-10-01 22:10:00,S027,Espinheiro,-8.049,-34.906,Recife,484.16,48.31,71.91
2025-10-01 22:10:00,S028,Meireles,-3.7295,-38.5216,Fortaleza,407.85,33.96,44.41
2025-10-01 22:10:00,S029,Aldeota,-3.7273,-38.519,Fortaleza,395.58,31.74,51.21
2025-10-01 22:10:00,S030,Praia de Iracema,-3.717,-38.536,Fortaleza,391.9,20.66,41.71
2025-10-01 22:10:00,S031,Centro Histórico,-12.9711,-38.51,Salvador,485.53,78.96,76.68
2025-10-01 22:10:00,S032,Barra,-12.981,-38.51,Salvador,394.94,20.48,42.04
2025-10-01 22:10:00,S033,Ondina,-12.9782,-38.503,Salvador,381.76,28.35,52.74
2025-10-01 22:10:00,S034,Batel,-25.4284,-49.2733,Curitiba,401.33,19.96,43.55
2025-10-01 22:10:00,S035,Centro,-25.4287,-49.2731,Curitiba,409.62,18.22,35.9
2025-10-01 22:10:00,S036,Água Verde,-25.448,-49.282,Curitiba,386.26,33.22,49.42
2025-10-01 22:10:00,S037,Cabral,-25.419,-49.269,Curitiba,398.83,21.08,55.01
2025-10-01 22:10:00,S038,Moinhos de Vento,-30.0346,-51.216,Porto Alegre,383.65,24.23,37.37
2025-10-01 22:10:00,S039,Centro Histórico,-30.0277,-51.2287,Porto Alegre,400.0,23.34,50.19
2025-10-01 22:10:00,S040,Petrópolis,-30.0215,-51.2005,Porto Alegre,419.85,21.86,59.0
2025-10-01 22:10:00,S041,Cidade Baixa,-30.033,-51.224,Porto Alegre,400.4,34.46,54.19
2025-10-01 22:10:00,S042,Praia de Belas,-30.053,-51.212,Porto Alegre,394.39,17.7,58.06
2025-10-01 22:10:00,S043,Boa Vista,-3.0653,-60.025,Manaus,387.07,25.45,37.81
2025-10-01 22:10:00,S044,Centro,-3.119,-60.0217,Manaus,452.51,49.59,73.79
2025-10-01 22:10:00,S045,Aleixo,-3.1272,-60.005,Manaus,386.37,32.87,43.21
2025-10-01 22:10:00,S046,Centro,-1.455,-48.503,Belém,389.87,17.27,51.75
2025-10-01 22:10:00,S047,Reduto,-1.44,-48.502,Belém,396.82,22.5,39.65
2025-10-01 22:10:00,S048,Cidade Velha,-1.465,-48.492,Belém,412.62,28.66,40.57
2025-10-01 22:10:00,S049,Setor Oeste,-16.686,-49.262,Goiânia,393.43,29.41,50.19
2025-10-01 22:10:00,S050,Setor Bueno,-16.678,-49.255,Goiânia,408.06,19.87,48.03
2025-10-01 22:10:00,S051,Savassi,-19.935,-43.935,Belo Horizonte,383.42,20.75,35.35
