timestamp,station_id,station_name,latitude,longitude,city,CO2,PM2_5,O3
2025-10-01 23:07:43,RJ001,Centro,-22.9068,-43.1729,Rio de Janeiro,390.57,20.62,45.81
2025-10-01 23:07:43,RJ002,Copacabana,-22.9687,-43.1869,Rio de Janeiro,403.32,29.05,59.17
2025-10-01 23:07:43,RJ003,Tijuca,-22.9309,-43.2376,Rio de Janeiro,386.9,20.6,51.41
2025-10-01 23:07:43,RJ004,Nova Iguaçu,-22.7598,-43.4516,Nova Iguaçu,397.66,28.69,39.82
2025-10-01 23:07:43,RJ005,Niterói,-22.8832,-43.1034,Niterói,383.82,30.83,34.84
2025-10-01 23:07:43,RJ006,Petrópolis,-22.505,-43.1786,Petrópolis,382.58,27.4,49.28
2025-10-01 23:07:43,RJ007,Campos dos Goytacazes,-21.7622,-41.3181,Campos dos Goytacazes,398.41,22.62,52.25
2025-10-01 23:07:43,RJ008,Volta Redonda,-22.5202,-44.0996,Volta Redonda,413.43,16.37,43.85
2025-10-01 23:07:43,SP001,Paulista,-23.5614,-46.6559,São Paulo,407.15,19.57,42.9
2025-10-01 23:07:43,SP002,Pinheiros,-23.561,-46.7025,São Paulo,380.5,21.29,54.74
2025-10-01 23:07:43,SP003,Ibirapuera,-23.5874,-46.6576,São Paulo,381.44,23.4,38.96
2025-10-01 23:07:43,SP004,Campinas,-22.9099,-47.0626,Campinas,410.89,32.25,31.64
2025-10-01 23:07:43,SP005,Santos,-23.954,-46.3336,Santos,394.95,34.4,35.3
2025-10-01 23:07:43,SP006,São José dos Campos,-23.2237,-45.9009,São José dos Campos,411.5,24.56,38.19
2025-10-01 23:07:43,SP007,Sorocaba,-23.5015,-47.4526,Sorocaba,408.58,24.93,34.57
2025-10-01 23:07:43,SP008,Ribeirão Preto,-21.1786,-47.8066,Ribeirão Preto,389.03,19.23,45.8
2025-10-01 23:07:43,MG001,Savassi,-19.935,-43.9336,Belo Horizonte,401.81,28.18,47.96
2025-10-01 23:07:43,MG002,Pampulha,-19.8522,-43.9766,Belo Horizonte,401.55,26.0,43.39
2025-10-01 23:07:43,MG003,Uberlândia,-18.9188,-48.2768,Uberlândia,382.1,26.73,40.94
2025-10-01 23:07:43,MG004,Juiz de Fora,-21.7622,-43.3434,Juiz de Fora,417.92,20.06,49.61
2025-10-01 23:07:43,MG005,Montes Claros,-16.7282,-43.8578,Montes Claros,384.13,31.79,49.36
2025-10-01 23:07:43,MG006,Uberaba,-19.7477,-47.931,Uberaba,397.62,30.05,39.09
2025-10-01 23:07:43,MG007,Ouro Preto,-20.3856,-43.5036,Ouro Preto,399.69,21.43,47.58
2025-10-01 23:07:43,ES001,Vitória,-20.3155,-40.3128,Vitória,412.72,30.81,41.75
2025-10-01 23:07:43,ES002,Vila Velha,-20.3417,-40.2875,Vila Velha,392.35,32.16,45.61
2025-10-01 23:07:43,ES003,Serra,-20.1211,-40.3074,Serra,383.97,23.91,41.98
2025-10-01 23:07:43,ES004,Cariacica,-20.2637,-40.4165,Cariacica,475.11,89.87,68.47
2025-10-01 23:07:43,ES005,Guarapari,-20.6771,-40.5093,Guarapari,398.35,32.69,52.72
