timestamp,station_id,station_name,latitude,longitude,city,CO2,PM2_5,O3
2025-10-01 23:02:29,S001,Centro,-22.9068,-43.1729,Rio de Janeiro,385.27,33.8,58.06
2025-10-01 23:02:29,S002,Copacabana,-22.9687,-43.1869,Rio de Janeiro,483.17,64.28,79.6
2025-10-01 23:02:29,S003,Tijuca,-22.9309,-43.2376,Rio de Janeiro,412.18,27.88,59.69
2025-10-01 23:02:29,S004,Nova Iguaçu,-22.7598,-43.4516,Rio de Janeiro,418.54,29.02,41.29
2025-10-01 23:02:29,S005,Botafogo,-22.9509,-43.1815,Rio de Janeiro,415.53,31.57,52.64
2025-10-01 23:02:29,S006,Leblon,-22.9831,-43.2227,Rio de Janeiro,397.59,21.24,42.96
2025-10-01 23:02:29,S007,Ipanema,-22.9839,-43.206,Rio de Janeiro,391.75,15.82,57.09
2025-10-01 23:02:29,S008,Barra da Tijuca,-23.0007,-43.3653,Rio de Janeiro,386.34,27.35,44.0
2025-10-01 23:02:29,S009,Lagoa,-22.9745,-43.2041,Rio de Janeiro,397.05,22.66,42.31
2025-10-01 23:02:29,S010,Jardim Paulista,-23.5711,-46.652,São Paulo,491.26,45.01,60.12
2025-10-01 23:02:29,S011,Vila Madalena,-23.5567,-46.6892,São Paulo,500.37,61.01,47.31
2025-10-01 23:02:29,S012,Pinheiros,-23.5675,-46.7016,São Paulo,399.93,19.84,31.16
2025-10-01 23:02:29,S013,Moema,-23.6008,-46.6739,São Paulo,387.42,30.56,41.15
2025-10-01 23:02:29,S014,Bela Vista,-23.5644,-46.6472,São Paulo,413.51,29.63,41.92
2025-10-01 23:02:29,S015,Itaim Bibi,-23.5845,-46.6812,São Paulo,384.01,17.12,32.65
2025-10-01 23:02:29,S016,Liberdade,-23.57,-46.632,São Paulo,465.11,81.85,58.27
2025-10-01 23:02:29,S017,Savassi,-19.9311,-43.9378,Belo Horizonte,536.88,72.98,74.66
2025-10-01 23:02:29,S018,Pampulha,-19.8513,-43.9586,Belo Horizonte,381.36,19.93,49.36
2025-10-01 23:02:29,S019,Funcionários,-19.9305,-43.9381,Belo Horizonte,401.65,20.91,53.09
2025-10-01 23:02:29,S020,Belvedere,-19.932,-43.957,Belo Horizonte,416.77,15.73,31.68
2025-10-01 23:02:29,S021,Asa Sul,-15.7974,-47.8825,Brasília,382.21,19.62,36.19
2025-10-01 23:02:29,S022,Asa Norte,-15.7747,-47.885,Brasília,406.77,18.99,50.82
2025-10-01 23:02:29,S023,Lago Sul,-15.825,-47.853,Brasília,401.46,32.95,48.9
2025-10-01 23:02:29,S024,Lago Norte,-15.763,-47.807,Brasília,388.2,16.17,33.03
2025-10-01 23:02:29,S025,Boa Viagem,-8.1125,-34.9036,Recife,404.39,23.55,41.67
2025-10-01 23:02:29,S026,Graças,-8.0526,-34.8944,Recife,403.21,23.75,59.4
2025-10-01 23:02:29,S027,Espinheiro,-8.049,-34.906,Recife,384.8,24.55,57.56
2025-10-01 23:02:29,S028,Meireles,-3.7295,-38.5216,Fortaleza,415.82,23.25,59.19
2025-10-01 23:02:29,S029,Aldeota,-3.7273,-38.519,Fortaleza,401.77,30.95,30.02
2025-10-01 23:02:29,S030,Praia de Iracema,-3.717,-38.536,Fortaleza,536.72,75.29,65.35
2025-10-01 23:02:29,S031,Centro Histórico,-12.9711,-38.51,Salvador,383.96,20.68,36.3
2025-10-01 23:02:29,S032,Barra,-12.981,-38.51,Salvador,413.86,16.66,56.14
2025-10-01 23:02:29,S033,Ondina,-12.9782,-38.503,Salvador,393.01,17.71,51.66
2025-10-01 23:02:29,S034,Batel,-25.4284,-49.2733,Curitiba,406.32,29.43,41.69
2025-10-01 23:02:29,S035,Centro,-25.4287,-49.2731,Curitiba,406.51,23.69,51.25
2025-10-01 23:02:29,S036,Água Verde,-25.448,-49.282,Curitiba,402.47,21.42,53.34
2025-10-01 23:02:29,S037,Cabral,-25.419,-49.269,Curitiba,497.94,79.49,78.77
2025-10-01 23:02:29,S038,Moinhos de Vento,-30.0346,-51.216,Porto Alegre,415.41,18.12,32.68
2025-10-01 23:02:29,S039,Centro Histórico,-30.0277,-51.2287,Porto Alegre,380.0,34.48,49.4
2025-10-01 23:02:29,S040,Petrópolis,-30.0215,-51.2005,Porto Alegre,405.46,22.79,30.69
2025-10-01 23:02:29,S041,Cidade Baixa,-30.033,-51.224,Porto Alegre,401.74,18.18,41.36
2025-10-01 23:02:29,S042,Praia de Belas,-30.053,-51.212,Porto Alegre,385.08,26.07,31.21
2025-10-01 23:02:29,S043,Boa Vista,-3.0653,-60.025,Manaus,412.52,21.13,48.13
2025-10-01 23:02:29,S044,Centro,-3.119,-60.0217,Manaus,414.37,23.75,45.2
2025-10-01 23:02:29,S045,Aleixo,-3.1272,-60.005,Manaus,381.3,22.8,53.63
2025-10-01 23:02:29,S046,Centro,-1.455,-48.503,Belém,405.23,18.68,50.57
2025-10-01 23:02:29,S047,Reduto,-1.44,-48.502,Belém,411.76,21.07,35.8
2025-10-01 23:02:29,S048,Cidade Velha,-1.465,-48.492,Belém,414.43,29.29,31.46
2025-10-01 23:02:29,S049,Setor Oeste,-16.686,-49.262,Goiânia,414.4,28.22,38.4
2025-10-01 23:02:29,S050,Setor Bueno,-16.678,-49.255,Goiânia,410.55,15.74,32.17
2025-10-01 23:02:29,S051,Savassi,-19.935,-43.935,Belo Horizonte,393.12,15.9,52.95
