timestamp,station_id,station_name,latitude,longitude,city,CO2,PM2_5,O3
2025-10-01 23:01:02,RJ001,Centro,-22.9068,-43.1729,Rio de Janeiro,381.18,16.66,57.08
2025-10-01 23:01:02,RJ002,Copacabana,-22.9687,-43.1869,Rio de Janeiro,397.58,19.92,47.17
2025-10-01 23:01:02,RJ003,Tijuca,-22.9309,-43.2376,Rio de Janeiro,400.71,27.44,42.58
2025-10-01 23:01:02,RJ004,Nova Iguaçu,-22.7598,-43.4516,Nova Iguaçu,380.77,25.01,46.92
2025-10-01 23:01:02,RJ005,Niterói,-22.8832,-43.1034,Niterói,410.41,21.07,33.82
2025-10-01 23:01:02,RJ006,Petrópolis,-22.505,-43.1786,Petrópolis,413.01,29.32,31.9
2025-10-01 23:01:02,RJ007,Campos dos Goytacazes,-21.7622,-41.3181,Campos dos Goytacazes,390.32,27.31,36.9
2025-10-01 23:01:02,RJ008,Volta Redonda,-22.5202,-44.0996,Volta Redonda,386.8,24.07,46.11
2025-10-01 23:01:02,SP001,Paulista,-23.5614,-46.6559,São Paulo,394.67,19.04,37.26
2025-10-01 23:01:02,SP002,Pinheiros,-23.561,-46.7025,São Paulo,388.16,17.93,48.01
2025-10-01 23:01:02,SP003,Ibirapuera,-23.5874,-46.6576,São Paulo,417.75,19.5,52.33
2025-10-01 23:01:02,SP004,Campinas,-22.9099,-47.0626,Campinas,390.8,15.77,58.09
2025-10-01 23:01:02,SP005,Santos,-23.954,-46.3336,Santos,469.02,70.3,81.26
2025-10-01 23:01:02,SP006,São José dos Campos,-23.2237,-45.9009,São José dos Campos,405.19,24.85,30.61
2025-10-01 23:01:02,SP007,Sorocaba,-23.5015,-47.4526,Sorocaba,409.57,19.44,31.57
2025-10-01 23:01:02,SP008,Ribeirão Preto,-21.1786,-47.8066,Ribeirão Preto,512.48,59.3,62.07
2025-10-01 23:01:02,MG001,Savassi,-19.935,-43.9336,Belo Horizonte,408.74,25.67,36.26
2025-10-01 23:01:02,MG002,Pampulha,-19.8522,-43.9766,Belo Horizonte,401.77,16.66,43.58
2025-10-01 23:01:02,MG003,Uberlândia,-18.9188,-48.2768,Uberlândia,406.7,29.25,51.81
2025-10-01 23:01:02,MG004,Juiz de Fora,-21.7622,-43.3434,Juiz de Fora,414.45,18.22,32.64
2025-10-01 23:01:02,MG005,Montes Claros,-16.7282,-43.8578,Montes Claros,410.8,34.11,57.5
2025-10-01 23:01:02,MG006,Uberaba,-19.7477,-47.931,Uberaba,383.38,21.31,52.23
2025-10-01 23:01:02,MG007,Ouro Preto,-20.3856,-43.5036,Ouro Preto,564.36,61.41,55.83
2025-10-01 23:01:02,ES001,Vitória,-20.3155,-40.3128,Vitória,399.1,24.98,51.44
2025-10-01 23:01:02,ES002,Vila Velha,-20.3417,-40.2875,Vila Velha,479.69,58.21,67.05
2025-10-01 23:01:02,ES003,Serra,-20.1211,-40.3074,Serra,388.14,20.81,58.85
2025-10-01 23:01:02,ES004,Cariacica,-20.2637,-40.4165,Cariacica,389.35,18.41,42.95
2025-10-01 23:01:02,ES005,Guarapari,-20.6771,-40.5093,Guarapari,381.63,25.72,34.11
