timestamp,station_id,station_name,latitude,longitude,city,CO2,PM2_5,O3
2025-10-01 23:09:43,S001,Centro,-22.9068,-43.1729,Rio de Janeiro,405.81,20.23,59.29
2025-10-01 23:09:43,S002,Copacabana,-22.9687,-43.1869,Rio de Janeiro,405.92,31.82,43.43
2025-10-01 23:09:43,S003,Tijuca,-22.9309,-43.2376,Rio de Janeiro,393.58,24.06,48.44
2025-10-01 23:09:43,S004,Nova Iguaçu,-22.7598,-43.4516,Rio de Janeiro,385.68,21.49,33.06
2025-10-01 23:09:43,S005,Botafogo,-22.9509,-43.1815,Rio de Janeiro,407.53,19.56,44.98
2025-10-01 23:09:43,S006,Leblon,-22.9831,-43.2227,Rio de Janeiro,493.77,75.1,70.48
2025-10-01 23:09:43,S007,Ipanema,-22.9839,-43.206,Rio de Janeiro,400.48,27.28,33.55
2025-10-01 23:09:43,S008,Barra da Tijuca,-23.0007,-43.3653,Rio de Janeiro,514.58,63.72,62.87
2025-10-01 23:09:43,S009,Lagoa,-22.9745,-43.2041,Rio de Janeiro,405.13,18.92,54.6
2025-10-01 23:09:43,S010,Jardim Paulista,-23.5711,-46.652,São Paulo,380.25,26.78,34.24
2025-10-01 23:09:43,S011,Vila Madalena,-23.5567,-46.6892,São Paulo,408.34,33.96,55.28
2025-10-01 23:09:43,S012,Pinheiros,-23.5675,-46.7016,São Paulo,390.41,32.5,38.86
2025-10-01 23:09:43,S013,Moema,-23.6008,-46.6739,São Paulo,407.71,23.9,58.01
2025-10-01 23:09:43,S014,Bela Vista,-23.5644,-46.6472,São Paulo,387.38,22.19,44.52
2025-10-01 23:09:43,S015,Itaim Bibi,-23.5845,-46.6812,São Paulo,402.33,22.71,57.79
2025-10-01 23:09:43,S016,Liberdade,-23.57,-46.632,São Paulo,401.3,16.62,49.32
2025-10-01 23:09:43,S017,Savassi,-19.9311,-43.9378,Belo Horizonte,509.92,55.71,58.17
2025-10-01 23:09:43,S018,Pampulha,-19.8513,-43.9586,Belo Horizonte,398.21,17.67,32.79
2025-10-01 23:09:43,S019,Funcionários,-19.9305,-43.9381,Belo Horizonte,414.6,19.31,30.43
2025-10-01 23:09:43,S020,Belvedere,-19.932,-43.957,Belo Horizonte,414.22,33.68,38.44
2025-10-01 23:09:43,S021,Asa Sul,-15.7974,-47.8825,Brasília,395.43,24.59,37.39
2025-10-01 23:09:43,S022,Asa Norte,-15.7747,-47.885,Brasília,415.96,30.81,38.08
2025-10-01 23:09:43,S023,Lago Sul,-15.825,-47.853,Brasília,541.8,57.75,66.4
2025-10-01 23:09:43,S024,Lago Norte,-15.763,-47.807,Brasília,403.46,26.47,37.26
2025-10-01 23:09:43,S025,Boa Viagem,-8.1125,-34.9036,Recife,392.88,21.6,46.93
2025-10-01 23:09:43,S026,Graças,-8.0526,-34.8944,Recife,384.89,17.89,52.98
2025-10-01 23:09:43,S027,Espinheiro,-8.049,-34.906,Recife,466.83,36.53,68.66
2025-10-01 23:09:43,S028,Meireles,-3.7295,-38.5216,Fortaleza,413.4,20.32,47.24
2025-10-01 23:09:43,S029,Aldeota,-3.7273,-38.519,Fortaleza,392.02,34.63,39.49
2025-10-01 23:09:43,S030,Praia de Iracema,-3.717,-38.536,Fortaleza,418.59,16.14,33.73
2025-10-01 23:09:43,S031,Centro Histórico,-12.9711,-38.51,Salvador,388.99,15.84,47.95
2025-10-01 23:09:43,S032,Barra,-12.981,-38.51,Salvador,411.83,31.49,57.95
2025-10-01 23:09:43,S033,Ondina,-12.9782,-38.503,Salvador,390.33,21.3,34.68
2025-10-01 23:09:43,S034,Batel,-25.4284,-49.2733,Curitiba,409.62,16.72,59.14
2025-10-01 23:09:43,S035,Centro,-25.4287,-49.2731,Curitiba,398.23,21.59,39.14
2025-10-01 23:09:43,S036,Água Verde,-25.448,-49.282,Curitiba,388.03,15.03,41.29
2025-10-01 23:09:43,S037,Cabral,-25.419,-49.269,Curitiba,418.2,34.3,38.15
2025-10-01 23:09:43,S038,Moinhos de Vento,-30.0346,-51.216,Porto Alegre,393.51,15.23,33.49
2025-10-01 23:09:43,S039,Centro Histórico,-30.0277,-51.2287,Porto Alegre,403.93,16.88,30.02
2025-10-01 23:09:43,S040,Petrópolis,-30.0215,-51.2005,Porto Alegre,401.97,34.86,43.03
2025-10-01 23:09:43,S041,Cidade Baixa,-30.033,-51.224,Porto Alegre,391.92,32.56,46.67
2025-10-01 23:09:43,S042,Praia de Belas,-30.053,-51.212,Porto Alegre,401.4,28.72,32.11
2025-10-01 23:09:43,S043,Boa Vista,-3.0653,-60.025,Manaus,405.81,31.64,59.02
2025-10-01 23:09:43,S044,Centro,-3.119,-60.0217,Manaus,484.35,73.7,62.7
2025-10-01 23:09:43,S045,Aleixo,-3.1272,-60.005,Manaus,404.86,23.09,35.62
2025-10-01 23:09:43,S046,Centro,-1.455,-48.503,Belém,386.47,30.47,33.19
2025-10-01 23:09:43,S047,Reduto,-1.44,-48.502,Belém,416.39,27.55,44.02
2025-10-01 23:09:43,S048,Cidade Velha,-1.465,-48.492,Belém,399.95,18.46,59.67
2025-10-01 23:09:43,S049,Setor Oeste,-16.686,-49.262,Goiânia,493.54,86.02,59.88
2025-10-01 23:09:43,S050,Setor Bueno,-16.678,-49.255,Goiânia,474.14,53.39,70.69
2025-10-01 23:09:43,S051,Savassi,-19.935,-43.935,Belo Horizonte,409.25,28.24,49.14
